$GPTXT,01,01,02,ANTSTATUS=OK*3B
$GPRMC,,V,,,,,,,,,,N*53
$GPVTG,,,,,,,,,N*30
$GPGGA,,,,,,0,00,99.99,,,,,,*48
$GPGSA,A,1,,,,,,,,,,,,,99.99,99.99,99.99*30
$GPGSV,3,1,09,01,,,33,06,,,32,08,,,31,09,,,26*73
$GPGSV,3,2,09,10,,,28,13,,,28,14,,,33,15,,,26*77
$GPGSV,3,3,09,16,,,31*75
$GPGLL,,,,,,V,N*64
$GPRMC,,V,,,,,,,,,,N*53
$GPVTG,,,,,,,,,N*30
$GPGGA,,,,,,0,00,99.99,,,,,,*48
$GPGSA,A,1,,,,,,,,,,,,,99.99,99.99,99.99*30
$GPGSV,3,1,09,01,,,34,06,,,33,08,,,31,09,,,27*74
$GPGSV,3,2,09,10,,,29,13,,,28,14,,,35,15,,,28*7E
$GPGSV,3,3,09,16,,,31*75
$GPGLL,,,,,,V,N*64
$GPRMC,,V,,,,,,,,,,N*53
$GPVTG,,,,,,,,,N*30
$GPGGA,,,,,,0,00,99.99,,,,,,*48
$GPGSA,A,1,,,,,,,,,,,,,99.99,99.99,99.99*30
$GPGSV,3,1,09,01,,,35,06,,,34,08,,,32,09,,,27*71
$GPGSV,3,2,09,10,,,30,13,,,28,14,,,35,15,,,29*77
$GPGSV,3,3,09,16,,,32*76
$GPGLL,,,,,,V,N*64
$GPRMC,,V,,,,,,,,,,N*53
$GPVTG,,,,,,,,,N*30
$GPGGA,,,,,,0,00,99.99,,,,,,*48
$GPGSA,A,1,,,,,,,,,,,,,99.99,99.99,99.99*30
$GPGSV,3,1,10,01,,,36,02,,,31,06,,,36,08,,,32*74
$GPGSV,3,2,10,09,,,28,10,,,31,13,,,28,14,,,35*72
$GPGSV,3,3,10,15,,,29,16,,,31*72
$GPGLL,,,,,,V,N*64
$GPRMC,,V,,,,,,,,,,N*53
$GPVTG,,,,,,,,,N*30
$GPGGA,,,,,,0,00,99.99,,,,,,*48
$GPGSA,A,1,,,,,,,,,,,,,99.99,99.99,99.99*30
$GPGSV,3,1,10,01,,,35,02,,,29,06,,,36,08,,,32*7E
$GPGSV,3,2,10,09,,,28,10,,,31,13,,,28,14,,,35*72
$GPGSV,3,3,10,15,,,29,16,,,31*72
$GPGLL,,,,,,V,N*64
$GPRMC,,V,,,,,,,,,,N*53
$GPVTG,,,,,,,,,N*30
$GPGGA,,,,,,0,00,99.99,,,,,,*48
$GPGSA,A,1,,,,,,,,,,,,,99.99,99.99,99.99*30
$GPGSV,3,1,12,01,,,36,02,,,28,03,,,36,06,,,31*76
$GPGSV,3,2,12,07,,,34,08,,,32,09,,,28,10,,,31*72
$GPGSV,3,3,12,13,,,28,14,,,33,15,,,29,16,,,31*7D
$GPGLL,,,,,,V,N*64
$GPRMC,,V,,,,,,,,,,N*53
$GPVTG,,,,,,,,,N*30
$GPGGA,,,,,,0,00,99.99,,,,,,*48
$GPGSA,A,1,,,,,,,,,,,,,99.99,99.99,99.99*30
$GPGSV,3,1,12,01,,,36,02,,,28,03,,,36,05,,,30*74
$GPGSV,3,2,12,06,,,34,07,,,33,08,,,32,10,,,32*74
$GPGSV,3,3,12,12,,,30,14,,,36,15,,,29,16,,,31*70
$GPGLL,,,,,,V,N*64
$GPRMC,,V,,,,,,,,,,N*53
$GPVTG,,,,,,,,,N*30
$GPGGA,,,,,,0,00,99.99,,,,,,*48
$GPGSA,A,1,,,,,,,,,,,,,99.99,99.99,99.99*30
$GPGSV,3,1,11,01,,,32,04,,,29,05,,,29,06,,,30*7F
$GPGSV,3,2,11,07,,,29,09,,,29,10,,,32,12,,,29*7E
$GPGSV,3,3,11,14,,,33,15,,,28,16,,,31*77
$GPGLL,,,,,,V,N*64
$GPRMC,,V,,,,,,,,,,N*53
$GPVTG,,,,,,,,,N*30
$GPGGA,,,,,,0,00,99.99,,,,,,*48
$GPGSA,A,1,,,,,,,,,,,,,99.99,99.99,99.99*30
$GPGSV,2,1,06,01,,,26,02,,,25,04,,,25,09,,,25*71
$GPGSV,2,2,06,10,,,29,14,,,28*7A
$GPGLL,,,,,,V,N*64
$GPRMC,,V,,,,,,,,,,N*53
$GPVTG,,,,,,,,,N*30
$GPGGA,,,,,,0,00,99.99,,,,,,*48
$GPGSA,A,1,,,,,,,,,,,,,99.99,99.99,99.99*30
$GPGSV,1,1,04,02,,,24,04,,,24,10,,,28,14,,,27*70
$GPGLL,,,,,,V,N*64
$GPRMC,,V,,,,,,,,,,N*53
$GPVTG,,,,,,,,,N*30
$GPGGA,,,,,,0,00,99.99,,,,,,*48
$GPGSA,A,1,,,,,,,,,,,,,99.99,99.99,99.99*30
$GPGSV,1,1,00*79
$GPGLL,,,,,,V,N*64
$GPRMC,,V,,,,,,,,,,N*53
$GPVTG,,,,,,,,,N*30
$GPGGA,,,,,,0,00,99.99,,,,,,*48
$GPGSA,A,1,,,,,,,,,,,,,99.99,99.99,99.99*30
$GPGSV,1,1,00*79
$GPGLL,,,,,,V,N*64
$GPRMC,,V,,,,,,,,,,N*53
$GPVTG,,,,,,,,,N*30
$GPGGA,,,,,,0,00,99.99,,,,,,*48
$GPGSA,A,1,,,,,,,,,,,,,99.99,99.99,99.99*30
$GPGSV,1,1,00*79
$GPGLL,,,,,,V,N*64
$GPRMC,,V,,,,,,,,,,N*53
$GPVTG,,,,,,,,,N*30
$GPGGA,,,,,,0,00,99.99,,,,,,*48
$GPGSA,A,1,,,,,,,,,,,,,99.99,99.99,99.99*30
$GPGSV,1,1,00*79
$GPGLL,,,,,,V,N*64
$GPRMC,,V,,,,,,,,,,N*53
$GPVTG,,,,,,,,,N*30
$GPGGA,,,,,,0,00,99.99,,,,,,*48
$GPGSA,A,1,,,,,,,,,,,,,99.99,99.99,99.99*30
$GPGSV,1,1,01,30,,,34*7C
$GPGLL,,,,,,V,N*64
$GPRMC,,V,,,,,,,,,,N*53
$GPVTG,,,,,,,,,N*30
$GPGGA,,,,,,0,00,99.99,,,,,,*48
$GPGSA,A,1,,,,,,,,,,,,,99.99,99.99,99.99*30
$GPGSV,1,1,01,30,,,33*7B
$GPGLL,,,,,,V,N*64
$GPRMC,,V,,,,,,,,,,N*53
$GPVTG,,,,,,,,,N*30
$GPGGA,,,,,,0,00,99.99,,,,,,*48
$GPGSA,A,1,,,,,,,,,,,,,99.99,99.99,99.99*30
$GPGSV,1,1,01,30,,,33*7B
$GPGLL,,,,,,V,N*64
$GPRMC,,V,,,,,,,,,,N*53
$GPVTG,,,,,,,,,N*30
$GPGGA,,,,,,0,00,99.99,,,,,,*48
$GPGSA,A,1,,,,,,,,,,,,,99.99,99.99,99.99*30
$GPGSV,1,1,01,30,,,32*7A
$GPGLL,,,,,,V,N*64
$GPRMC,,V,,,,,,,,,,N*53
$GPVTG,,,,,,,,,N*30
$GPGGA,,,,,,0,00,99.99,,,,,,*48
$GPGSA,A,1,,,,,,,,,,,,,99.99,99.99,99.99*30
$GPGSV,1,1,01,30,,,32*7A
$GPGLL,,,,,,V,N*64
$GPRMC,,V,,,,,,,,,,N*53
$GPVTG,,,,,,,,,N*30
$GPGGA,,,,,,0,00,99.99,,,,,,*48
$GPGSA,A,1,,,,,,,,,,,,,99.99,99.99,99.99*30
$GPGSV,1,1,02,22,,,36,30,,,31*7F
$GPGLL,,,,,,V,N*64
$GPRMC,,V,,,,,,,,,,N*53
$GPVTG,,,,,,,,,N*30
$GPGGA,,,,,,0,00,99.99,,,,,,*48
$GPGSA,A,1,,,,,,,,,,,,,99.99,99.99,99.99*30
$GPGSV,1,1,02,22,,,36,30,,,31*7F
$GPGLL,,,,,,V,N*64
$GPRMC,,V,,,,,,,,,,N*53
$GPVTG,,,,,,,,,N*30
$GPGGA,,,,,,0,00,99.99,,,,,,*48
$GPGSA,A,1,,,,,,,,,,,,,99.99,99.99,99.99*30
$GPGSV,1,1,02,22,,,36,30,,,31*7F
$GPGLL,,,,,,V,N*64
$GPRMC,,V,,,,,,,,,,N*53
$GPVTG,,,,,,,,,N*30
$GPGGA,,,,,,0,00,99.99,,,,,,*48
$GPGSA,A,1,,,,,,,,,,,,,99.99,99.99,99.99*30
$GPGSV,1,1,02,22,,,35,30,,,32*7F
$GPGLL,,,,,,V,N*64
$GPRMC,,V,,,,,,,,,,N*53
$GPVTG,,,,,,,,,N*30
$GPGGA,,,,,,0,00,99.99,,,,,,*48
$GPGSA,A,1,,,,,,,,,,,,,99.99,99.99,99.99*30
$GPGSV,1,1,02,22,,,35,30,,,32*7F
$GPGLL,,,,,,V,N*64
$GPRMC,174154.00,V,,,,,,,200510,,,N*79
$GPVTG,,,,,,,,,N*30
$GPGGA,174154.00,,,,,0,00,99.99,,,,,,*64
$GPGSA,A,1,,,,,,,,,,,,,99.99,99.99,99.99*30
$GPGSV,1,1,02,22,,,35,30,,,32*7F
$GPGLL,,,,,174154.00,V,N*48
$GPRMC,174155.00,V,,,,,,,200510,,,N*78
$GPVTG,,,,,,,,,N*30
$GPGGA,174155.00,,,,,0,00,99.99,,,,,,*65
$GPGSA,A,1,,,,,,,,,,,,,99.99,99.99,99.99*30
$GPGSV,1,1,02,22,,,35,30,,,32*7F
$GPGLL,,,,,174155.00,V,N*49
$GPRMC,174156.00,V,,,,,,,200510,,,N*7B
$GPVTG,,,,,,,,,N*30
$GPGGA,174156.00,,,,,0,00,99.99,,,,,,*66
$GPGSA,A,1,,,,,,,,,,,,,99.99,99.99,99.99*30
$GPGSV,1,1,02,22,,,35,30,,,32*7F
$GPGLL,,,,,174156.00,V,N*4A
$GPRMC,174157.00,V,,,,,,,200510,,,N*7A
$GPVTG,,,,,,,,,N*30
$GPGGA,174157.00,,,,,0,00,99.99,,,,,,*67
$GPGSA,A,1,,,,,,,,,,,,,99.99,99.99,99.99*30
$GPGSV,1,1,02,22,,,35,30,,,32*7F
$GPGLL,,,,,174157.00,V,N*4B
$GPRMC,174158.00,V,,,,,,,200510,,,N*75
$GPVTG,,,,,,,,,N*30
$GPGGA,174158.00,,,,,0,00,99.99,,,,,,*68
$GPGSA,A,1,,,,,,,,,,,,,99.99,99.99,99.99*30
$GPGSV,1,1,02,22,,,35,30,,,32*7F
$GPGLL,,,,,174158.00,V,N*44
$GPRMC,174159.00,V,,,,,,,200510,,,N*74
$GPVTG,,,,,,,,,N*30
$GPGGA,174159.00,,,,,0,00,99.99,,,,,,*69
$GPGSA,A,1,,,,,,,,,,,,,99.99,99.99,99.99*30
$GPGSV,1,1,03,19,,,34,22,,,35,30,,,33*70
$GPGLL,,,,,174159.00,V,N*45
$GPRMC,174200.00,V,,,,,,,200510,,,N*7B
$GPVTG,,,,,,,,,N*30
$GPGGA,174200.00,,,,,0,00,99.99,,,,,,*66
$GPGSA,A,1,,,,,,,,,,,,,99.99,99.99,99.99*30
$GPGSV,1,1,03,19,,,29,22,,,35,30,,,33*7C
$GPGLL,,,,,174200.00,V,N*4A
$GPRMC,174201.00,V,,,,,,,200510,,,N*7A
$GPVTG,,,,,,,,,N*30
$GPGGA,174201.00,,,,,0,00,99.99,,,,,,*67
$GPGSA,A,1,,,,,,,,,,,,,99.99,99.99,99.99*30
$GPGSV,1,1,04,13,,,33,19,,,28,22,,,35,30,,,34*7F
$GPGLL,,,,,174201.00,V,N*4B
$GPRMC,174202.00,V,,,,,,,200510,,,N*79
$GPVTG,,,,,,,,,N*30
$GPGGA,174202.00,,,,,0,00,99.99,,,,,,*64
$GPGSA,A,1,,,,,,,,,,,,,99.99,99.99,99.99*30
$GPGSV,1,1,04,13,,,28,19,,,28,22,,,35,30,,,34*75
$GPGLL,,,,,174202.00,V,N*48
$GPRMC,174203.00,V,,,,,,,200510,,,N*78
$GPVTG,,,,,,,,,N*30
$GPGGA,174203.00,,,,,0,00,99.99,,,,,,*65
$GPGSA,A,1,,,,,,,,,,,,,99.99,99.99,99.99*30
$GPGSV,1,1,03,19,,,28,22,,,35,30,,,34*7A
$GPGLL,,,,,174203.00,V,N*49
$GPRMC,174204.00,V,,,,,,,200510,,,N*7F
$GPVTG,,,,,,,,,N*30
$GPGGA,174204.00,,,,,0,00,99.99,,,,,,*62
$GPGSA,A,1,,,,,,,,,,,,,99.99,99.99,99.99*30
$GPGSV,1,1,03,19,,,28,22,,,34,30,,,35*7A
$GPGLL,,,,,174204.00,V,N*4E
$GPRMC,174205.00,V,,,,,,,200510,,,N*7E
$GPVTG,,,,,,,,,N*30
$GPGGA,174205.00,,,,,0,00,99.99,,,,,,*63
$GPGSA,A,1,,,,,,,,,,,,,99.99,99.99,99.99*30
$GPGSV,1,1,03,19,,,28,22,,,34,30,,,35*7A
$GPGLL,,,,,174205.00,V,N*4F
$GPRMC,174206.00,V,,,,,,,200510,,,N*7D
$GPVTG,,,,,,,,,N*30
$GPGGA,174206.00,,,,,0,00,99.99,,,,,,*60
$GPGSA,A,1,,,,,,,,,,,,,99.99,99.99,99.99*30
$GPGSV,1,1,03,19,,,28,22,,,34,30,,,35*7A
$GPGLL,,,,,174206.00,V,N*4C
$GPRMC,174207.00,V,,,,,,,200510,,,N*7C
$GPVTG,,,,,,,,,N*30
$GPGGA,174207.00,,,,,0,00,99.99,,,,,,*61
$GPGSA,A,1,,,,,,,,,,,,,99.99,99.99,99.99*30
$GPGSV,1,1,03,19,,,28,22,,,34,30,,,35*7A
$GPGLL,,,,,174207.00,V,N*4D
$GPRMC,174208.00,V,,,,,,,200510,,,N*73
$GPVTG,,,,,,,,,N*30
$GPGGA,174208.00,,,,,0,00,99.99,,,,,,*6E
$GPGSA,A,1,,,,,,,,,,,,,99.99,99.99,99.99*30
$GPGSV,1,1,04,07,,,33,19,,,28,22,,,34,30,,,35*7A
$GPGLL,,,,,174208.00,V,N*42
$GPRMC,174209.00,V,,,,,,,200510,,,N*72
$GPVTG,,,,,,,,,N*30
$GPGGA,174209.00,,,,,0,00,99.99,,,,,,*6F
$GPGSA,A,1,,,,,,,,,,,,,99.99,99.99,99.99*30
$GPGSV,1,1,04,07,,,28,19,,,28,22,,,34,30,,,35*70
$GPGLL,,,,,174209.00,V,N*43
$GPRMC,174210.00,V,,,,,,,200510,,,N*7A
$GPVTG,,,,,,,,,N*30
$GPGGA,174210.00,,,,,0,00,99.99,,,,,,*67
$GPGSA,A,1,,,,,,,,,,,,,99.99,99.99,99.99*30
$GPGSV,1,1,04,07,,,27,19,,,28,22,,,35,30,,,35*7E
$GPGLL,,,,,174210.00,V,N*4B
$GPRMC,174211.00,V,,,,,,,200510,,,N*7B
$GPVTG,,,,,,,,,N*30
$GPGGA,174211.00,,,,,0,00,99.99,,,,,,*66
$GPGSA,A,1,,,,,,,,,,,,,99.99,99.99,99.99*30
$GPGSV,1,1,04,07,,,27,19,,,28,22,,,35,30,,,35*7E
$GPGLL,,,,,174211.00,V,N*4A
$GPRMC,174212.00,V,,,,,,,200510,,,N*78
$GPVTG,,,,,,,,,N*30
$GPGGA,174212.00,,,,,0,00,99.99,,,,,,*65
$GPGSA,A,1,,,,,,,,,,,,,99.99,99.99,99.99*30
$GPGSV,2,1,05,05,,,28,07,,,27,19,,,28,22,,,35*76
$GPGSV,2,2,05,30,,,35*79
$GPGLL,,,,,174212.00,V,N*49
$GPRMC,174213.00,V,,,,,,,200510,,,N*79
$GPVTG,,,,,,,,,N*30
$GPGGA,174213.00,,,,,0,00,99.99,,,,,,*64
$GPGSA,A,1,,,,,,,,,,,,,99.99,99.99,99.99*30
$GPGSV,1,1,04,07,,,27,19,,,28,22,,,35,30,,,35*7E
$GPGLL,,,,,174213.00,V,N*48
$GPRMC,174214.00,V,,,,,,,200510,,,N*7E
$GPVTG,,,,,,,,,N*30
$GPGGA,174214.00,,,,,0,00,99.99,,,,,,*63
$GPGSA,A,1,,,,,,,,,,,,,99.99,99.99,99.99*30
$GPGSV,1,1,04,07,,,27,19,,,29,22,,,35,30,,,35*7F
$GPGLL,,,,,174214.00,V,N*4F
$GPRMC,174215.00,V,,,,,,,200510,,,N*7F
$GPVTG,,,,,,,,,N*30
$GPGGA,174215.00,,,,,0,00,99.99,,,,,,*62
$GPGSA,A,1,,,,,,,,,,,,,99.99,99.99,99.99*30
$GPGSV,2,1,05,07,,,27,12,,,34,19,,,28,22,,,36*7E
$GPGSV,2,2,05,30,,,34*78
$GPGLL,,,,,174215.00,V,N*4E
$GPRMC,174216.00,V,,,,,,,200510,,,N*7C
$GPVTG,,,,,,,,,N*30
$GPGGA,174216.00,,,,,0,00,99.99,,,,,,*61
$GPGSA,A,1,,,,,,,,,,,,,99.99,99.99,99.99*30
$GPGSV,2,1,06,05,,,29,07,,,27,12,,,34,19,,,28*76
$GPGSV,2,2,06,22,,,36,30,,,35*7F
$GPGLL,,,,,174216.00,V,N*4D
$GPRMC,174217.00,V,,,,,,,200510,,,N*7D
$GPVTG,,,,,,,,,N*30
$GPGGA,174217.00,,,,,0,00,99.99,,,,,,*60
$GPGSA,A,1,,,,,,,,,,,,,99.99,99.99,99.99*30
$GPGSV,2,1,06,05,,,28,07,,,27,12,,,33,19,,,28*70
$GPGSV,2,2,06,22,,,36,30,,,35*7F
$GPGLL,,,,,174217.00,V,N*4C
$GPRMC,174218.00,V,,,,,,,200510,,,N*72
$GPVTG,,,,,,,,,N*30
$GPGGA,174218.00,,,,,0,00,99.99,,,,,,*6F
$GPGSA,A,1,,,,,,,,,,,,,99.99,99.99,99.99*30
$GPGSV,1,1,04,12,,,33,19,,,33,22,,,36,30,,,35*76
$GPGLL,,,,,174218.00,V,N*43
$GPRMC,174219.00,V,,,,,,,200510,,,N*73
$GPVTG,,,,,,,,,N*30
$GPGGA,174219.00,,,,,0,00,99.99,,,,,,*6E
$GPGSA,A,1,,,,,,,,,,,,,99.99,99.99,99.99*30
$GPGSV,2,1,05,12,,,33,19,,,29,22,,,36,23,,,29*70
$GPGSV,2,2,05,30,,,35*79
$GPGLL,,,,,174219.00,V,N*42
$GPRMC,174220.00,V,,,,,,,200510,,,N*79
$GPVTG,,,,,,,,,N*30
$GPGGA,174220.00,,,,,0,00,99.99,,,,,,*64
$GPGSA,A,1,,,,,,,,,,,,,99.99,99.99,99.99*30
$GPGSV,2,1,05,12,,,33,19,,,29,22,,,36,23,,,28*71
$GPGSV,2,2,05,30,,,36*7A
$GPGLL,,,,,174220.00,V,N*48
$GPRMC,174221.00,V,,,,,,,200510,,,N*78
$GPVTG,,,,,,,,,N*30
$GPGGA,174221.00,,,,,0,00,99.99,,,,,,*65
$GPGSA,A,1,,,,,,,,,,,,,99.99,99.99,99.99*30
$GPGSV,2,1,05,12,,,33,19,,,28,22,,,36,23,,,28*70
$GPGSV,2,2,05,30,,,36*7A
$GPGLL,,,,,174221.00,V,N*49
$GPRMC,174222.00,V,,,,,,,200510,,,N*7B
$GPVTG,,,,,,,,,N*30
$GPGGA,174222.00,,,,,0,00,99.99,,,,,,*66
$GPGSA,A,1,,,,,,,,,,,,,99.99,99.99,99.99*30
$GPGSV,2,1,05,12,,,34,19,,,28,22,,,37,23,,,28*76
$GPGSV,2,2,05,30,,,36*7A
$GPGLL,,,,,174222.00,V,N*4A
$GPRMC,174223.00,V,,,,,,,200510,,,N*7A
$GPVTG,,,,,,,,,N*30
$GPGGA,174223.00,,,,,0,00,99.99,,,,,,*67
$GPGSA,A,1,,,,,,,,,,,,,99.99,99.99,99.99*30
$GPGSV,2,1,05,12,,,34,19,,,28,22,,,37,23,,,28*76
$GPGSV,2,2,05,30,,,36*7A
$GPGLL,,,,,174223.00,V,N*4B
$GPRMC,174224.00,V,,,,,,,200510,,,N*7D
$GPVTG,,,,,,,,,N*30
$GPGGA,174224.00,,,,,0,00,99.99,,,,,,*60
$GPGSA,A,1,,,,,,,,,,,,,99.99,99.99,99.99*30
$GPGSV,2,1,05,12,,,34,19,,,28,22,,,36,23,,,28*77
$GPGSV,2,2,05,30,,,36*7A
$GPGLL,,,,,174224.00,V,N*4C
$GPRMC,174225.00,V,,,,,,,200510,,,N*7C
$GPVTG,,,,,,,,,N*30
$GPGGA,174225.00,,,,,0,00,99.99,,,,,,*61
$GPGSA,A,1,,,,,,,,,,,,,99.99,99.99,99.99*30
$GPGSV,1,1,04,12,,,34,19,,,28,22,,,36,30,,,36*78
$GPGLL,,,,,174225.00,V,N*4D
$GPRMC,174226.00,V,,,,,,,200510,,,N*7F
$GPVTG,,,,,,,,,N*30
$GPGGA,174226.00,,,,,0,00,99.99,,,,,,*62
$GPGSA,A,1,,,,,,,,,,,,,99.99,99.99,99.99*30
$GPGSV,1,1,04,12,,,34,19,,,28,22,,,36,30,,,35*7B
$GPGLL,,,,,174226.00,V,N*4E
$GPRMC,174227.00,V,,,,,,,200510,,,N*7E
$GPVTG,,,,,,,,,N*30
$GPGGA,174227.00,,,,,0,00,99.99,,,,,,*63
$GPGSA,A,1,,,,,,,,,,,,,99.99,99.99,99.99*30
$GPGSV,2,1,05,12,,,33,19,,,28,22,,,35,24,,,28*74
$GPGSV,2,2,05,30,,,35*79
$GPGLL,,,,,174227.00,V,N*4F
$GPRMC,174228.00,V,,,,,,,200510,,,N*71
$GPVTG,,,,,,,,,N*30
$GPGGA,174228.00,,,,,0,00,99.99,,,,,,*6C
$GPGSA,A,1,,,,,,,,,,,,,99.99,99.99,99.99*30
$GPGSV,1,1,03,12,,,33,22,,,35,30,,,35*7A
$GPGLL,,,,,174228.00,V,N*40
$GPRMC,174229.00,V,,,,,,,200510,,,N*70
$GPVTG,,,,,,,,,N*30
$GPGGA,174229.00,,,,,0,00,99.99,,,,,,*6D
$GPGSA,A,1,,,,,,,,,,,,,99.99,99.99,99.99*30
$GPGSV,1,1,04,12,,,33,19,,,29,22,,,35,30,,,35*7E
$GPGLL,,,,,174229.00,V,N*41
$GPRMC,174230.00,V,,,,,,,200510,,,N*78
$GPVTG,,,,,,,,,N*30
$GPGGA,174230.00,,,,,0,00,99.99,,,,,,*65
$GPGSA,A,1,,,,,,,,,,,,,99.99,99.99,99.99*30
$GPGSV,1,1,04,12,,,33,19,,,29,22,,,35,30,,,35*7E
$GPGLL,,,,,174230.00,V,N*49
$GPRMC,174231.00,V,,,,,,,200510,,,N*79
$GPVTG,,,,,,,,,N*30
$GPGGA,174231.00,,,,,0,00,99.99,,,,,,*64
$GPGSA,A,1,,,,,,,,,,,,,99.99,99.99,99.99*30
$GPGSV,1,1,03,12,,,33,22,,,35,30,,,35*7A
$GPGLL,,,,,174231.00,V,N*48
$GPRMC,174232.00,V,,,,,,,200510,,,N*7A
$GPVTG,,,,,,,,,N*30
$GPGGA,174232.00,,,,,0,00,99.99,,,,,,*67
$GPGSA,A,1,,,,,,,,,,,,,99.99,99.99,99.99*30
$GPGSV,1,1,04,12,,,33,19,,,31,22,,,35,30,,,35*77
$GPGLL,,,,,174232.00,V,N*4B
$GPRMC,174233.00,V,,,,,,,200510,,,N*7B
$GPVTG,,,,,,,,,N*30
$GPGGA,174233.00,,,,,0,00,99.99,,,,,,*66
$GPGSA,A,1,,,,,,,,,,,,,99.99,99.99,99.99*30
$GPGSV,1,1,04,12,,,32,19,,,29,22,,,35,30,,,34*7E
$GPGLL,,,,,174233.00,V,N*4A
$GPRMC,174234.00,V,,,,,,,200510,,,N*7C
$GPVTG,,,,,,,,,N*30
$GPGGA,174234.00,,,,,0,00,99.99,,,,,,*61
$GPGSA,A,1,,,,,,,,,,,,,99.99,99.99,99.99*30
$GPGSV,1,1,04,12,,,33,19,,,29,22,,,35,30,,,34*7F
$GPGLL,,,,,174234.00,V,N*4D
$GPRMC,174235.00,V,,,,,,,200510,,,N*7D
$GPVTG,,,,,,,,,N*30
$GPGGA,174235.00,,,,,0,00,99.99,,,,,,*60
$GPGSA,A,1,,,,,,,,,,,,,99.99,99.99,99.99*30
$GPGSV,1,1,03,12,,,33,22,,,35,30,,,35*7A
$GPGLL,,,,,174235.00,V,N*4C
$GPRMC,174236.00,V,,,,,,,200510,,,N*7E
$GPVTG,,,,,,,,,N*30
$GPGGA,174236.00,,,,,0,00,99.99,,,,,,*63
$GPGSA,A,1,,,,,,,,,,,,,99.99,99.99,99.99*30
$GPGSV,1,1,03,12,,,33,22,,,35,30,,,35*7A
$GPGLL,,,,,174236.00,V,N*4F
$GPRMC,174237.00,V,,,,,,,200510,,,N*7F
$GPVTG,,,,,,,,,N*30
$GPGGA,174237.00,,,,,0,00,99.99,,,,,,*62
$GPGSA,A,1,,,,,,,,,,,,,99.99,99.99,99.99*30
$GPGSV,1,1,03,12,,,33,22,,,35,30,,,35*7A
$GPGLL,,,,,174237.00,V,N*4E
$GPRMC,174238.00,V,,,,,,,200510,,,N*70
$GPVTG,,,,,,,,,N*30
$GPGGA,174238.00,,,,,0,00,99.99,,,,,,*6D
$GPGSA,A,1,,,,,,,,,,,,,99.99,99.99,99.99*30
$GPGSV,2,1,05,12,,,33,19,,,29,22,,,35,24,,,29*74
$GPGSV,2,2,05,30,,,35*79
$GPGLL,,,,,174238.00,V,N*41
$GPRMC,174239.00,V,,,,,,,200510,,,N*71
$GPVTG,,,,,,,,,N*30
$GPGGA,174239.00,,,,,0,00,99.99,,,,,,*6C
$GPGSA,A,1,,,,,,,,,,,,,99.99,99.99,99.99*30
$GPGSV,1,1,04,12,,,33,19,,,30,22,,,35,30,,,35*76
$GPGLL,,,,,174239.00,V,N*40
$GPRMC,174240.00,V,,,,,,,200510,,,N*7F
$GPVTG,,,,,,,,,N*30
$GPGGA,174240.00,,,,,0,00,99.99,,,,,,*62
$GPGSA,A,1,,,,,,,,,,,,,99.99,99.99,99.99*30
$GPGSV,1,1,04,12,,,33,19,,,28,22,,,35,30,,,36*7C
$GPGLL,,,,,174240.00,V,N*4E
$GPRMC,174241.00,V,,,,,,,200510,,,N*7E
$GPVTG,,,,,,,,,N*30
$GPGGA,174241.00,,,,,0,00,99.99,,,,,,*63
$GPGSA,A,1,,,,,,,,,,,,,99.99,99.99,99.99*30
$GPGSV,1,1,04,12,,,32,19,,,28,22,,,35,30,,,36*7D
$GPGLL,,,,,174241.00,V,N*4F
$GPRMC,174242.00,V,,,,,,,200510,,,N*7D
$GPVTG,,,,,,,,,N*30
$GPGGA,174242.00,,,,,0,00,99.99,,,,,,*60
$GPGSA,A,1,,,,,,,,,,,,,99.99,99.99,99.99*30
$GPGSV,1,1,04,12,,,32,19,,,28,22,,,35,30,,,36*7D
$GPGLL,,,,,174242.00,V,N*4C
$GPRMC,174243.00,V,,,,,,,200510,,,N*7C
$GPVTG,,,,,,,,,N*30
$GPGGA,174243.00,,,,,0,00,99.99,,,,,,*61
$GPGSA,A,1,,,,,,,,,,,,,99.99,99.99,99.99*30
$GPGSV,2,1,05,09,,,28,12,,,32,19,,,28,22,,,35*7A
$GPGSV,2,2,05,30,,,36*7A
$GPGLL,,,,,174243.00,V,N*4D
$GPRMC,174244.00,V,,,,,,,200510,,,N*7B
$GPVTG,,,,,,,,,N*30
$GPGGA,174244.00,,,,,0,00,99.99,,,,,,*66
$GPGSA,A,1,,,,,,,,,,,,,99.99,99.99,99.99*30
$GPGSV,2,1,05,09,,,27,12,,,32,19,,,27,22,,,35*7A
$GPGSV,2,2,05,30,,,36*7A
$GPGLL,,,,,174244.00,V,N*4A
$GPRMC,174245.00,V,,,,,,,200510,,,N*7A
$GPVTG,,,,,,,,,N*30
$GPGGA,174245.00,,,,,0,00,99.99,,,,,,*67
$GPGSA,A,1,,,,,,,,,,,,,99.99,99.99,99.99*30
$GPGSV,2,1,05,09,,,27,12,,,32,19,,,27,22,,,35*7A
$GPGSV,2,2,05,30,,,36*7A
$GPGLL,,,,,174245.00,V,N*4B
$GPRMC,174246.00,V,,,,,,,200510,,,N*79
$GPVTG,,,,,,,,,N*30
$GPGGA,174246.00,,,,,0,00,99.99,,,,,,*64
$GPGSA,A,1,,,,,,,,,,,,,99.99,99.99,99.99*30
$GPGSV,2,1,05,09,,,27,12,,,31,19,,,28,22,,,35*76
$GPGSV,2,2,05,30,,,36*7A
$GPGLL,,,,,174246.00,V,N*48
$GPRMC,174247.00,V,,,,,,,200510,,,N*78
$GPVTG,,,,,,,,,N*30
$GPGGA,174247.00,,,,,0,00,99.99,,,,,,*65
$GPGSA,A,1,,,,,,,,,,,,,99.99,99.99,99.99*30
$GPGSV,2,1,05,09,,,27,12,,,32,19,,,28,22,,,35*75
$GPGSV,2,2,05,30,,,36*7A
$GPGLL,,,,,174247.00,V,N*49
$GPRMC,174248.00,V,,,,,,,200510,,,N*77
$GPVTG,,,,,,,,,N*30
$GPGGA,174248.00,,,,,0,00,99.99,,,,,,*6A
$GPGSA,A,1,,,,,,,,,,,,,99.99,99.99,99.99*30
$GPGSV,2,1,05,09,,,27,12,,,31,19,,,27,22,,,35*79
$GPGSV,2,2,05,30,,,36*7A
$GPGLL,,,,,174248.00,V,N*46
$GPRMC,174249.00,V,,,,,,,200510,,,N*76
$GPVTG,,,,,,,,,N*30
$GPGGA,174249.00,,,,,0,00,99.99,,,,,,*6B
$GPGSA,A,1,,,,,,,,,,,,,99.99,99.99,99.99*30
$GPGSV,2,1,05,09,,,27,12,,,32,19,,,27,22,,,35*7A
$GPGSV,2,2,05,30,,,36*7A
$GPGLL,,,,,174249.00,V,N*47
$GPRMC,174250.00,V,,,,,,,200510,,,N*7E
$GPVTG,,,,,,,,,N*30
$GPGGA,174250.00,,,,,0,00,99.99,,,,,,*63
$GPGSA,A,1,,,,,,,,,,,,,99.99,99.99,99.99*30
$GPGSV,2,1,05,09,,,26,12,,,31,19,,,27,22,,,35*78
$GPGSV,2,2,05,30,,,36*7A
$GPGLL,,,,,174250.00,V,N*4F
$GPRMC,174251.00,V,,,,,,,200510,,,N*7F
$GPVTG,,,,,,,,,N*30
$GPGGA,174251.00,,,,,0,00,99.99,,,,,,*62
$GPGSA,A,1,,,,,,,,,,,,,99.99,99.99,99.99*30
$GPGSV,2,1,05,09,,,27,12,,,32,19,,,27,22,,,36*79
$GPGSV,2,2,05,30,,,36*7A
$GPGLL,,,,,174251.00,V,N*4E
$GPRMC,174252.00,V,,,,,,,200510,,,N*7C
$GPVTG,,,,,,,,,N*30
$GPGGA,174252.00,,,,,0,00,99.99,,,,,,*61
$GPGSA,A,1,,,,,,,,,,,,,99.99,99.99,99.99*30
$GPGSV,1,1,04,09,,,27,12,,,32,22,,,36,30,,,36*70
$GPGLL,,,,,174252.00,V,N*4D
$GPRMC,174252.51,V,,,,,,,200510,,,N*78
$GPVTG,,,,,,,,,N*30
$GPGGA,174252.51,,,,,0,03,7.07,,,,,,*56
$GPGSA,A,1,30,22,12,,,,,,,,,,7.14,7.07,1.00*03
$GPGSV,2,1,05,09,,,27,12,11,046,32,20,12,306,,22,31,119,36*49
$GPGSV,2,2,05,30,23,079,36*45
$GPGLL,,,,,174252.51,V,N*49
$GPRMC,174253.00,V,,,,,,,200510,,,N*7D
$GPVTG,,,,,,,,,N*30
$GPGGA,174253.00,,,,,0,00,99.99,,,,,,*60
$GPGSA,A,1,,,,,,,,,,,,,99.99,99.99,99.99*30
$GPGSV,2,1,05,09,,,27,12,11,046,32,20,12,306,,22,31,119,37*48
$GPGSV,2,2,05,30,23,079,36*45
$GPGLL,,,,,174253.00,V,N*4C
$GPRMC,174254.00,V,,,,,,,200510,,,N*7A
$GPVTG,,,,,,,,,N*30
$GPGGA,174254.00,,,,,0,00,99.99,,,,,,*67
$GPGSA,A,1,,,,,,,,,,,,,99.99,99.99,99.99*30
$GPGSV,1,1,04,12,11,046,33,20,12,306,,22,31,119,37,30,23,079,36*7E
$GPGLL,,,,,174254.00,V,N*4B
$GPRMC,174255.00,V,,,,,,,200510,,,N*7B
$GPVTG,,,,,,,,,N*30
$GPGGA,174255.00,,,,,0,00,99.99,,,,,,*66
$GPGSA,A,1,,,,,,,,,,,,,99.99,99.99,99.99*30
$GPGSV,1,1,04,12,11,046,33,20,12,306,,22,31,119,37,30,23,079,36*7E
$GPGLL,,,,,174255.00,V,N*4A
$GPRMC,174256.00,V,,,,,,,200510,,,N*78
$GPVTG,,,,,,,,,N*30
$GPGGA,174256.00,,,,,0,00,99.99,,,,,,*65
$GPGSA,A,1,,,,,,,,,,,,,99.99,99.99,99.99*30
$GPGSV,1,1,04,12,11,046,34,20,12,306,,22,31,119,38,30,23,079,37*77
$GPGLL,,,,,174256.00,V,N*49
$GPRMC,174257.00,V,,,,,,,200510,,,N*79
$GPVTG,,,,,,,,,N*30
$GPGGA,174257.00,,,,,0,00,99.99,,,,,,*64
$GPGSA,A,1,,,,,,,,,,,,,99.99,99.99,99.99*30
$GPGSV,1,1,04,12,11,046,33,20,12,306,,22,31,119,38,30,23,079,37*70
$GPGLL,,,,,174257.00,V,N*48
$GPRMC,174258.00,V,,,,,,,200510,,,N*76
$GPVTG,,,,,,,,,N*30
$GPGGA,174258.00,,,,,0,00,99.99,,,,,,*6B
$GPGSA,A,1,,,,,,,,,,,,,99.99,99.99,99.99*30
$GPGSV,1,1,04,12,11,046,34,20,12,306,,22,31,119,37,30,23,079,37*78
$GPGLL,,,,,174258.00,V,N*47
$GPRMC,174259.00,V,,,,,,,200510,,,N*77
$GPVTG,,,,,,,,,N*30
$GPGGA,174259.00,,,,,0,00,99.99,,,,,,*6A
$GPGSA,A,1,,,,,,,,,,,,,99.99,99.99,99.99*30
$GPGSV,2,1,05,12,11,046,34,19,,,28,20,12,306,,22,31,119,37*40
$GPGSV,2,2,05,30,23,079,37*44
$GPGLL,,,,,174259.00,V,N*46
$GPRMC,174300.00,V,,,,,,,200510,,,N*7A
$GPVTG,,,,,,,,,N*30
$GPGGA,174300.00,,,,,0,00,99.99,,,,,,*67
$GPGSA,A,1,,,,,,,,,,,,,99.99,99.99,99.99*30
$GPGSV,2,1,05,12,11,046,34,19,,,28,20,12,306,,22,31,119,37*40
$GPGSV,2,2,05,30,23,079,37*44
$GPGLL,,,,,174300.00,V,N*4B
$GPRMC,174301.00,V,,,,,,,200510,,,N*7B
$GPVTG,,,,,,,,,N*30
$GPGGA,174301.00,,,,,0,00,99.99,,,,,,*66
$GPGSA,A,1,,,,,,,,,,,,,99.99,99.99,99.99*30
$GPGSV,1,1,04,12,11,046,33,20,12,306,,22,31,119,37,30,23,079,37*7F
$GPGLL,,,,,174301.00,V,N*4A
$GPRMC,174302.00,V,,,,,,,200510,,,N*78
$GPVTG,,,,,,,,,N*30
$GPGGA,174302.00,,,,,0,00,99.99,,,,,,*65
$GPGSA,A,1,,,,,,,,,,,,,99.99,99.99,99.99*30
$GPGSV,2,1,05,11,,,27,12,11,046,33,20,12,306,,22,31,119,37*40
$GPGSV,2,2,05,30,23,079,37*44
$GPGLL,,,,,174302.00,V,N*49
$GPRMC,174303.00,V,,,,,,,200510,,,N*79
$GPVTG,,,,,,,,,N*30
$GPGGA,174303.00,,,,,0,00,99.99,,,,,,*64
$GPGSA,A,1,,,,,,,,,,,,,99.99,99.99,99.99*30
$GPGSV,1,1,04,12,11,046,33,20,12,306,,22,31,119,37,30,23,079,37*7F
$GPGLL,,,,,174303.00,V,N*48
$GPRMC,174304.00,V,,,,,,,200510,,,N*7E
$GPVTG,,,,,,,,,N*30
$GPGGA,174304.00,,,,,0,00,99.99,,,,,,*63
$GPGSA,A,1,,,,,,,,,,,,,99.99,99.99,99.99*30
$GPGSV,2,1,05,12,11,046,33,19,,,29,20,12,306,,22,31,119,37*46
$GPGSV,2,2,05,30,23,079,37*44
$GPGLL,,,,,174304.00,V,N*4F
$GPRMC,174305.00,V,,,,,,,200510,,,N*7F
$GPVTG,,,,,,,,,N*30
$GPGGA,174305.00,,,,,0,00,99.99,,,,,,*62
$GPGSA,A,1,,,,,,,,,,,,,99.99,99.99,99.99*30
$GPGSV,2,1,05,10,,,29,12,11,046,34,20,12,306,,22,31,119,37*48
$GPGSV,2,2,05,30,23,079,37*44
$GPGLL,,,,,174305.00,V,N*4E
$GPRMC,174306.00,V,,,,,,,200510,,,N*7C
$GPVTG,,,,,,,,,N*30
$GPGGA,174306.00,,,,,0,03,7.07,,,,,,*52
$GPGSA,A,1,30,22,12,,,,,,,,,,7.14,7.07,1.00*03
$GPGSV,1,1,04,12,11,046,34,20,12,306,,22,31,119,37,30,23,079,37*78
$GPGLL,,,,,174306.00,V,N*4D
$GPRMC,174307.00,A,4003.98859,N,10512.70914,W,0.783,14.79,200510,,,A*45
$GPVTG,14.79,T,,M,0.783,N,1.450,K,A*0A
$GPGGA,174307.00,4003.98859,N,10512.70914,W,1,03,7.07,2304.1,M,-21.3,M,,*5C
$GPGSA,A,2,30,22,12,,,,,,,,,,7.14,7.07,1.00*00
$GPGSV,1,1,04,12,11,046,33,20,12,306,,22,31,119,37,30,23,079,37*7F
$GPGLL,4003.98859,N,10512.70914,W,174307.00,A,A*73
$GPRMC,174308.00,V,,,,,,,200510,,,N*72
$GPVTG,,,,,,,,,N*30
$GPGGA,174308.00,,,,,0,00,99.99,,,,,,*6F
$GPGSA,A,1,,,,,,,,,,,,,99.99,99.99,99.99*30
$GPGSV,1,1,04,12,11,046,33,20,12,306,,22,31,119,37,30,23,079,37*7F
$GPGLL,,,,,174308.00,V,N*43
$GPRMC,174309.00,V,,,,,,,200510,,,N*73
$GPVTG,,,,,,,,,N*30
$GPGGA,174309.00,,,,,0,00,99.99,,,,,,*6E
$GPGSA,A,1,,,,,,,,,,,,,99.99,99.99,99.99*30
$GPGSV,1,1,04,12,11,046,,20,12,306,,22,31,119,37,30,23,079,37*7F
$GPGLL,,,,,174309.00,V,N*42
$GPRMC,174310.00,V,,,,,,,200510,,,N*7B
$GPVTG,,,,,,,,,N*30
$GPGGA,174310.00,,,,,0,00,99.99,,,,,,*66
$GPGSA,A,1,,,,,,,,,,,,,99.99,99.99,99.99*30
$GPGSV,1,1,04,12,11,046,33,20,12,306,,22,31,119,37,30,23,079,37*7F
$GPGLL,,,,,174310.00,V,N*4A
$GPRMC,174311.00,V,,,,,,,200510,,,N*7A
$GPVTG,,,,,,,,,N*30
$GPGGA,174311.00,,,,,0,00,99.99,,,,,,*67
$GPGSA,A,1,,,,,,,,,,,,,99.99,99.99,99.99*30
$GPGSV,1,1,04,12,11,046,,20,12,306,,22,31,119,37,30,23,079,37*7F
$GPGLL,,,,,174311.00,V,N*4B
$GPRMC,174312.00,V,,,,,,,200510,,,N*79
$GPVTG,,,,,,,,,N*30
$GPGGA,174312.00,,,,,0,00,99.99,,,,,,*64
$GPGSA,A,1,,,,,,,,,,,,,99.99,99.99,99.99*30
$GPGSV,1,1,04,12,11,046,32,20,12,306,,22,31,119,37,30,23,079,37*7E
$GPGLL,,,,,174312.00,V,N*48
$GPRMC,174313.00,V,,,,,,,200510,,,N*78
$GPVTG,,,,,,,,,N*30
$GPGGA,174313.00,,,,,0,00,99.99,,,,,,*65
$GPGSA,A,1,,,,,,,,,,,,,99.99,99.99,99.99*30
$GPGSV,1,1,04,12,11,046,,20,12,306,,22,30,119,37,30,23,079,37*7E
$GPGLL,,,,,174313.00,V,N*49
$GPRMC,174314.00,V,,,,,,,200510,,,N*7F
$GPVTG,,,,,,,,,N*30
$GPGGA,174314.00,,,,,0,00,99.99,,,,,,*62
$GPGSA,A,1,,,,,,,,,,,,,99.99,99.99,99.99*30
$GPGSV,1,1,04,12,11,046,32,20,12,306,,22,30,119,38,30,23,079,37*70
$GPGLL,,,,,174314.00,V,N*4E
$GPRMC,174315.00,V,,,,,,,200510,,,N*7E
$GPVTG,,,,,,,,,N*30
$GPGGA,174315.00,,,,,0,00,99.99,,,,,,*63
$GPGSA,A,1,,,,,,,,,,,,,99.99,99.99,99.99*30
$GPGSV,1,1,04,12,11,046,,20,12,306,,22,30,119,38,30,23,079,37*71
$GPGLL,,,,,174315.00,V,N*4F
$GPRMC,174316.00,V,,,,,,,200510,,,N*7D
$GPVTG,,,,,,,,,N*30
$GPGGA,174316.00,,,,,0,00,99.99,,,,,,*60
$GPGSA,A,1,,,,,,,,,,,,,99.99,99.99,99.99*30
$GPGSV,1,1,04,12,11,046,32,20,12,306,,22,30,119,38,30,23,079,37*70
$GPGLL,,,,,174316.00,V,N*4C
$GPRMC,174317.00,V,,,,,,,200510,,,N*7C
$GPVTG,,,,,,,,,N*30
$GPGGA,174317.00,,,,,0,00,99.99,,,,,,*61
$GPGSA,A,1,,,,,,,,,,,,,99.99,99.99,99.99*30
$GPGSV,1,1,04,12,11,046,,20,12,306,,22,30,119,38,30,23,079,37*71
$GPGLL,,,,,174317.00,V,N*4D
$GPRMC,174318.00,A,4003.98704,N,10512.70269,W,0.281,73.93,200510,,,A*4F
$GPVTG,73.93,T,,M,0.281,N,0.520,K,A*0F
$GPGGA,174318.00,4003.98704,N,10512.70269,W,1,03,7.07,2303.9,M,-21.3,M,,*5B
$GPGSA,A,2,30,22,12,,,,,,,,,,7.14,7.07,1.00*00
$GPGSV,1,1,04,12,11,046,34,20,12,306,,22,30,119,38,30,23,079,37*76
$GPGLL,4003.98704,N,10512.70269,W,174318.00,A,A*7B
$GPRMC,174319.00,V,,,,,,,200510,,,N*72
$GPVTG,,,,,,,,,N*30
$GPGGA,174319.00,,,,,0,00,99.99,,,,,,*6F
$GPGSA,A,1,,,,,,,,,,,,,99.99,99.99,99.99*30
$GPGSV,1,1,04,12,11,046,34,20,12,306,,22,30,119,38,30,23,079,37*76
$GPGLL,,,,,174319.00,V,N*43
$GPRMC,174320.00,V,,,,,,,200510,,,N*78
$GPVTG,,,,,,,,,N*30
$GPGGA,174320.00,,,,,0,00,99.99,,,,,,*65
$GPGSA,A,1,,,,,,,,,,,,,99.99,99.99,99.99*30
$GPGSV,2,1,05,10,,,33,12,11,046,,20,12,306,,22,30,119,38*4A
$GPGSV,2,2,05,30,23,079,36*45
$GPGLL,,,,,174320.00,V,N*49
$GPRMC,174321.00,A,4003.98822,N,10512.70406,W,0.549,74.08,200510,,,A*47
$GPVTG,74.08,T,,M,0.549,N,1.017,K,A*09
$GPGGA,174321.00,4003.98822,N,10512.70406,W,1,03,7.07,2303.9,M,-21.3,M,,*55
$GPGSA,A,2,30,22,12,,,,,,,,,,7.14,7.07,1.00*00
$GPGSV,2,1,05,01,,,31,12,11,046,33,20,12,306,,22,30,119,38*48
$GPGSV,2,2,05,30,23,079,37*44
$GPGLL,4003.98822,N,10512.70406,W,174321.00,A,A*75
$GPRMC,174322.00,A,4003.98842,N,10512.70396,W,0.307,65.53,200510,,,A*4E
$GPVTG,65.53,T,,M,0.307,N,0.569,K,A*06
$GPGGA,174322.00,4003.98842,N,10512.70396,W,1,03,7.07,2303.9,M,-21.3,M,,*5E
$GPGSA,A,2,30,22,12,,,,,,,,,,7.14,7.07,1.00*00
$GPGSV,2,1,05,01,,,33,12,11,046,33,20,12,306,,22,30,119,38*4A
$GPGSV,2,2,05,30,23,079,37*44
$GPGLL,4003.98842,N,10512.70396,W,174322.00,A,A*7E
$GPRMC,174323.00,V,,,,,,,200510,,,N*7B
$GPVTG,,,,,,,,,N*30
$GPGGA,174323.00,,,,,0,00,99.99,,,,,,*66
$GPGSA,A,1,,,,,,,,,,,,,99.99,99.99,99.99*30
$GPGSV,2,1,05,01,,,33,12,11,046,33,20,12,306,,22,30,119,38*4A
$GPGSV,2,2,05,30,23,079,37*44
$GPGLL,,,,,174323.00,V,N*4A
$GPRMC,174324.00,V,,,,,,,200510,,,N*7C
$GPVTG,,,,,,,,,N*30
$GPGGA,174324.00,,,,,0,00,99.99,,,,,,*61
$GPGSA,A,1,,,,,,,,,,,,,99.99,99.99,99.99*30
$GPGSV,2,1,05,01,,,33,12,11,046,,20,12,306,,22,30,119,38*4A
$GPGSV,2,2,05,30,23,079,37*44
$GPGLL,,,,,174324.00,V,N*4D
$GPRMC,174325.00,V,,,,,,,200510,,,N*7D
$GPVTG,,,,,,,,,N*30
$GPGGA,174325.00,,,,,0,00,99.99,,,,,,*60
$GPGSA,A,1,,,,,,,,,,,,,99.99,99.99,99.99*30
$GPGSV,2,1,05,01,,,33,12,11,046,32,20,12,306,,22,30,119,38*4B
$GPGSV,2,2,05,30,23,079,38*4B
$GPGLL,,,,,174325.00,V,N*4C
$GPRMC,174326.00,V,,,,,,,200510,,,N*7E
$GPVTG,,,,,,,,,N*30
$GPGGA,174326.00,,,,,0,00,99.99,,,,,,*63
$GPGSA,A,1,,,,,,,,,,,,,99.99,99.99,99.99*30
$GPGSV,2,1,05,01,,,33,12,11,046,,20,12,306,,22,30,119,38*4A
$GPGSV,2,2,05,30,23,079,38*4B
$GPGLL,,,,,174326.00,V,N*4F
$GPRMC,174327.00,V,,,,,,,200510,,,N*7F
$GPVTG,,,,,,,,,N*30
$GPGGA,174327.00,,,,,0,00,99.99,,,,,,*62
$GPGSA,A,1,,,,,,,,,,,,,99.99,99.99,99.99*30
$GPGSV,2,1,05,01,,,33,12,11,046,32,20,12,306,,22,30,119,38*4B
$GPGSV,2,2,05,30,23,079,38*4B
$GPGLL,,,,,174327.00,V,N*4E
$GPRMC,174328.00,V,,,,,,,200510,,,N*70
$GPVTG,,,,,,,,,N*30
$GPGGA,174328.00,,,,,0,00,99.99,,,,,,*6D
$GPGSA,A,1,,,,,,,,,,,,,99.99,99.99,99.99*30
$GPGSV,2,1,05,01,,,33,12,11,046,,20,12,306,,22,30,119,38*4A
$GPGSV,2,2,05,30,23,079,38*4B
$GPGLL,,,,,174328.00,V,N*41
$GPRMC,174329.00,V,,,,,,,200510,,,N*71
$GPVTG,,,,,,,,,N*30
$GPGGA,174329.00,,,,,0,00,99.99,,,,,,*6C
$GPGSA,A,1,,,,,,,,,,,,,99.99,99.99,99.99*30
$GPGSV,2,1,05,01,,,33,12,11,046,32,20,12,306,,22,30,119,37*44
$GPGSV,2,2,05,30,23,079,38*4B
$GPGLL,,,,,174329.00,V,N*40
$GPRMC,174330.00,V,,,,,,,200510,,,N*79
$GPVTG,,,,,,,,,N*30
$GPGGA,174330.00,,,,,0,00,99.99,,,,,,*64
$GPGSA,A,1,,,,,,,,,,,,,99.99,99.99,99.99*30
$GPGSV,2,1,05,01,,,33,12,11,046,,20,12,306,,22,30,119,37*45
$GPGSV,2,2,05,30,23,079,38*4B
$GPGLL,,,,,174330.00,V,N*48
$GPRMC,174331.00,V,,,,,,,200510,,,N*78
$GPVTG,,,,,,,,,N*30
$GPGGA,174331.00,,,,,0,00,99.99,,,,,,*65
$GPGSA,A,1,,,,,,,,,,,,,99.99,99.99,99.99*30
$GPGSV,2,1,05,01,,,33,12,11,046,32,20,12,306,,22,30,119,37*44
$GPGSV,2,2,05,30,23,079,38*4B
$GPGLL,,,,,174331.00,V,N*49
$GPRMC,174332.00,V,,,,,,,200510,,,N*7B
$GPVTG,,,,,,,,,N*30
$GPGGA,174332.00,,,,,0,00,99.99,,,,,,*66
$GPGSA,A,1,,,,,,,,,,,,,99.99,99.99,99.99*30
$GPGSV,2,1,05,01,,,33,12,11,046,,20,12,306,,22,30,119,37*45
$GPGSV,2,2,05,30,23,079,38*4B
$GPGLL,,,,,174332.00,V,N*4A
$GPRMC,174333.00,V,,,,,,,200510,,,N*7A
$GPVTG,,,,,,,,,N*30
$GPGGA,174333.00,,,,,0,00,99.99,,,,,,*67
$GPGSA,A,1,,,,,,,,,,,,,99.99,99.99,99.99*30
$GPGSV,2,1,05,01,,,33,12,11,046,31,20,12,306,,22,30,119,37*47
$GPGSV,2,2,05,30,23,079,38*4B
$GPGLL,,,,,174333.00,V,N*4B
$GPRMC,174334.00,V,,,,,,,200510,,,N*7D
$GPVTG,,,,,,,,,N*30
$GPGGA,174334.00,,,,,0,00,99.99,,,,,,*60
$GPGSA,A,1,,,,,,,,,,,,,99.99,99.99,99.99*30
$GPGSV,2,1,05,01,,,33,12,11,046,,20,12,306,,22,30,119,38*4A
$GPGSV,2,2,05,30,23,079,38*4B
$GPGLL,,,,,174334.00,V,N*4C
$GPRMC,174335.00,V,,,,,,,200510,,,N*7C
$GPVTG,,,,,,,,,N*30
$GPGGA,174335.00,,,,,0,00,99.99,,,,,,*61
$GPGSA,A,1,,,,,,,,,,,,,99.99,99.99,99.99*30
$GPGSV,2,1,05,01,,,33,12,11,046,31,20,12,306,,22,30,119,38*48
$GPGSV,2,2,05,30,23,079,38*4B
$GPGLL,,,,,174335.00,V,N*4D
$GPRMC,174336.00,V,,,,,,,200510,,,N*7F
$GPVTG,,,,,,,,,N*30
$GPGGA,174336.00,,,,,0,00,99.99,,,,,,*62
$GPGSA,A,1,,,,,,,,,,,,,99.99,99.99,99.99*30
$GPGSV,2,1,05,01,,,33,12,11,046,,20,12,306,,22,30,119,38*4A
$GPGSV,2,2,05,30,23,079,37*44
$GPGLL,,,,,174336.00,V,N*4E
$GPRMC,174337.00,V,,,,,,,200510,,,N*7E
$GPVTG,,,,,,,,,N*30
$GPGGA,174337.00,,,,,0,00,99.99,,,,,,*63
$GPGSA,A,1,,,,,,,,,,,,,99.99,99.99,99.99*30
$GPGSV,2,1,05,01,,,33,12,11,046,31,20,12,306,,22,30,119,38*48
$GPGSV,2,2,05,30,23,079,37*44
$GPGLL,,,,,174337.00,V,N*4F
$GPRMC,174338.00,V,,,,,,,200510,,,N*71
$GPVTG,,,,,,,,,N*30
$GPGGA,174338.00,,,,,0,00,99.99,,,,,,*6C
$GPGSA,A,1,,,,,,,,,,,,,99.99,99.99,99.99*30
$GPGSV,2,1,05,01,,,34,12,11,046,30,20,12,306,,22,30,119,38*4E
$GPGSV,2,2,05,30,23,079,37*44
$GPGLL,,,,,174338.00,V,N*40
$GPRMC,174339.00,V,,,,,,,200510,,,N*70
$GPVTG,,,,,,,,,N*30
$GPGGA,174339.00,,,,,0,00,99.99,,,,,,*6D
$GPGSA,A,1,,,,,,,,,,,,,99.99,99.99,99.99*30
$GPGSV,2,1,05,01,,,34,12,11,046,,20,12,306,,22,30,119,38*4D
$GPGSV,2,2,05,30,23,079,37*44
$GPGLL,,,,,174339.00,V,N*41
$GPRMC,174340.00,V,,,,,,,200510,,,N*7E
$GPVTG,,,,,,,,,N*30
$GPGGA,174340.00,,,,,0,00,99.99,,,,,,*63
$GPGSA,A,1,,,,,,,,,,,,,99.99,99.99,99.99*30
$GPGSV,2,1,05,01,,,34,12,11,046,,20,12,306,,22,30,119,38*4D
$GPGSV,2,2,05,30,23,079,37*44
$GPGLL,,,,,174340.00,V,N*4F
$GPRMC,174341.00,V,,,,,,,200510,,,N*7F
$GPVTG,,,,,,,,,N*30
$GPGGA,174341.00,,,,,0,00,99.99,,,,,,*62
$GPGSA,A,1,,,,,,,,,,,,,99.99,99.99,99.99*30
$GPGSV,2,1,05,01,,,33,12,11,046,31,20,12,306,,22,30,119,38*48
$GPGSV,2,2,05,30,23,079,37*44
$GPGLL,,,,,174341.00,V,N*4E
$GPRMC,174342.00,V,,,,,,,200510,,,N*7C
$GPVTG,,,,,,,,,N*30
$GPGGA,174342.00,,,,,0,00,99.99,,,,,,*61
$GPGSA,A,1,,,,,,,,,,,,,99.99,99.99,99.99*30
$GPGSV,2,1,05,01,,,34,12,11,046,,20,12,306,,22,30,119,38*4D
$GPGSV,2,2,05,30,23,079,37*44
$GPGLL,,,,,174342.00,V,N*4D
$GPRMC,174343.00,V,,,,,,,200510,,,N*7D
$GPVTG,,,,,,,,,N*30
$GPGGA,174343.00,,,,,0,00,99.99,,,,,,*60
$GPGSA,A,1,,,,,,,,,,,,,99.99,99.99,99.99*30
$GPGSV,2,1,05,01,,,34,12,11,046,31,20,12,306,,22,30,119,37*40
$GPGSV,2,2,05,30,23,079,37*44
$GPGLL,,,,,174343.00,V,N*4C
$GPRMC,174344.00,V,,,,,,,200510,,,N*7A
$GPVTG,,,,,,,,,N*30
$GPGGA,174344.00,,,,,0,00,99.99,,,,,,*67
$GPGSA,A,1,,,,,,,,,,,,,99.99,99.99,99.99*30
$GPGSV,2,1,05,01,,,34,12,11,046,,20,12,306,,22,30,119,37*42
$GPGSV,2,2,05,30,23,079,37*44
$GPGLL,,,,,174344.00,V,N*4B
$GPRMC,174345.00,V,,,,,,,200510,,,N*7B
$GPVTG,,,,,,,,,N*30
$GPGGA,174345.00,,,,,0,00,99.99,,,,,,*66
$GPGSA,A,1,,,,,,,,,,,,,99.99,99.99,99.99*30
$GPGSV,2,1,05,01,,,34,12,11,046,31,20,12,306,,22,30,119,37*40
$GPGSV,2,2,05,30,23,079,37*44
$GPGLL,,,,,174345.00,V,N*4A
$GPRMC,174346.00,V,,,,,,,200510,,,N*78
$GPVTG,,,,,,,,,N*30
$GPGGA,174346.00,,,,,0,00,99.99,,,,,,*65
$GPGSA,A,1,,,,,,,,,,,,,99.99,99.99,99.99*30
$GPGSV,2,1,05,01,,,34,12,11,046,,20,12,306,,22,30,119,37*42
$GPGSV,2,2,05,30,23,079,37*44
$GPGLL,,,,,174346.00,V,N*49
$GPRMC,174347.00,V,,,,,,,200510,,,N*79
$GPVTG,,,,,,,,,N*30
$GPGGA,174347.00,,,,,0,00,99.99,,,,,,*64
$GPGSA,A,1,,,,,,,,,,,,,99.99,99.99,99.99*30
$GPGSV,2,1,05,01,,,34,12,11,046,32,20,12,306,,22,30,119,37*43
$GPGSV,2,2,05,30,23,079,37*44
$GPGLL,,,,,174347.00,V,N*48
$GPRMC,174348.00,V,,,,,,,200510,,,N*76
$GPVTG,,,,,,,,,N*30
$GPGGA,174348.00,,,,,0,00,99.99,,,,,,*6B
$GPGSA,A,1,,,,,,,,,,,,,99.99,99.99,99.99*30
$GPGSV,2,1,05,01,,,34,12,11,046,,20,12,306,,22,30,119,37*42
$GPGSV,2,2,05,30,23,079,37*44
$GPGLL,,,,,174348.00,V,N*47
$GPRMC,174349.00,V,,,,,,,200510,,,N*77
$GPVTG,,,,,,,,,N*30
$GPGGA,174349.00,,,,,0,00,99.99,,,,,,*6A
$GPGSA,A,1,,,,,,,,,,,,,99.99,99.99,99.99*30
$GPGSV,2,1,05,01,,,34,12,11,046,32,20,12,306,,22,30,119,37*43
$GPGSV,2,2,05,30,23,079,37*44
$GPGLL,,,,,174349.00,V,N*46
$GPRMC,174350.00,V,,,,,,,200510,,,N*7F
$GPVTG,,,,,,,,,N*30
$GPGGA,174350.00,,,,,0,00,99.99,,,,,,*62
$GPGSA,A,1,,,,,,,,,,,,,99.99,99.99,99.99*30
$GPGSV,2,1,05,01,,,35,12,11,046,,20,12,306,,22,30,119,37*43
$GPGSV,2,2,05,30,23,079,38*4B
$GPGLL,,,,,174350.00,V,N*4E
$GPRMC,174351.00,V,,,,,,,200510,,,N*7E
$GPVTG,,,,,,,,,N*30
$GPGGA,174351.00,,,,,0,00,99.99,,,,,,*63
$GPGSA,A,1,,,,,,,,,,,,,99.99,99.99,99.99*30
$GPGSV,2,1,05,01,,,35,12,11,046,33,20,12,306,,22,30,119,37*43
$GPGSV,2,2,05,30,23,079,37*44
$GPGLL,,,,,174351.00,V,N*4F
$GPRMC,174352.00,V,,,,,,,200510,,,N*7D
$GPVTG,,,,,,,,,N*30
$GPGGA,174352.00,,,,,0,00,99.99,,,,,,*60
$GPGSA,A,1,,,,,,,,,,,,,99.99,99.99,99.99*30
$GPGSV,2,1,05,01,,,35,12,11,046,,20,12,306,,22,30,119,37*43
$GPGSV,2,2,05,30,23,079,37*44
$GPGLL,,,,,174352.00,V,N*4C
$GPRMC,174353.00,V,,,,,,,200510,,,N*7C
$GPVTG,,,,,,,,,N*30
$GPGGA,174353.00,,,,,0,03,7.06,,,,,,*53
$GPGSA,A,1,30,22,12,,,,,,,,,,7.13,7.06,1.00*05
$GPGSV,2,1,05,01,,,35,12,11,046,33,20,12,306,,22,30,119,37*43
$GPGSV,2,2,05,30,23,079,38*4B
$GPGLL,,,,,174353.00,V,N*4D
$GPRMC,174354.00,A,4003.98548,N,10512.71256,W,1.482,349.16,200510,,,A*73
$GPVTG,349.16,T,,M,1.482,N,2.746,K,A*3C
$GPGGA,174354.00,4003.98548,N,10512.71256,W,1,03,7.06,2304.0,M,-21.3,M,,*5B
$GPGSA,A,2,30,22,12,,,,,,,,,,7.13,7.06,1.00*06
$GPGSV,2,1,05,01,,,35,12,11,046,33,20,12,306,,22,30,119,37*43
$GPGSV,2,2,05,30,23,079,38*4B
$GPGLL,4003.98548,N,10512.71256,W,174354.00,A,A*74
$GPRMC,174355.00,A,4003.98525,N,10512.71272,W,1.484,342.51,200510,,,A*71
$GPVTG,342.51,T,,M,1.484,N,2.750,K,A*35
$GPGGA,174355.00,4003.98525,N,10512.71272,W,1,03,7.06,2304.0,M,-21.3,M,,*57
$GPGSA,A,2,30,22,12,,,,,,,,,,7.13,7.06,1.00*06
$GPGSV,2,1,05,01,,,35,12,11,046,32,20,12,306,,22,30,119,37*42
$GPGSV,2,2,05,30,23,079,38*4B
$GPGLL,4003.98525,N,10512.71272,W,174355.00,A,A*78
$GPRMC,174356.00,A,4003.98483,N,10512.71331,W,1.536,335.57,200510,,,A*77
$GPVTG,335.57,T,,M,1.536,N,2.847,K,A*32
$GPGGA,174356.00,4003.98483,N,10512.71331,W,1,03,7.06,2304.0,M,-21.3,M,,*5F
$GPGSA,A,2,30,22,12,,,,,,,,,,7.13,7.06,1.00*06
$GPGSV,2,1,05,01,,,34,12,11,046,32,20,12,306,,22,30,119,37*43
$GPGSV,2,2,05,30,23,079,38*4B
$GPGLL,4003.98483,N,10512.71331,W,174356.00,A,A*70
$GPRMC,174357.00,A,4003.98474,N,10512.71448,W,1.120,331.12,200510,,,A*71
$GPVTG,331.12,T,,M,1.120,N,2.075,K,A*3D
$GPGGA,174357.00,4003.98474,N,10512.71448,W,1,03,7.06,2304.0,M,-21.3,M,,*5F
$GPGSA,A,2,30,22,12,,,,,,,,,,7.13,7.06,1.00*06
$GPGSV,2,1,05,01,,,34,12,11,046,32,20,12,306,,22,30,119,37*43
$GPGSV,2,2,05,30,23,079,38*4B
$GPGLL,4003.98474,N,10512.71448,W,174357.00,A,A*70
$GPRMC,174358.00,A,4003.98495,N,10512.71685,W,2.414,274.34,200510,,,A*77
$GPVTG,274.34,T,,M,2.414,N,4.473,K,A*3C
$GPGGA,174358.00,4003.98495,N,10512.71685,W,1,03,7.06,2304.0,M,-21.3,M,,*5C
$GPGSA,A,2,30,22,12,,,,,,,,,,7.13,7.06,1.00*06
$GPGSV,2,1,05,01,,,34,12,11,046,32,20,12,306,,22,30,119,37*43
$GPGSV,2,2,05,30,23,079,38*4B
$GPGLL,4003.98495,N,10512.71685,W,174358.00,A,A*73
$GPRMC,174359.00,A,4003.98498,N,10512.71844,W,1.179,272.60,200510,,,A*72
$GPVTG,272.60,T,,M,1.179,N,2.184,K,A*3D
$GPGGA,174359.00,4003.98498,N,10512.71844,W,1,03,7.06,2304.1,M,-21.3,M,,*52
$GPGSA,A,2,30,22,12,,,,,,,,,,7.13,7.06,1.00*06
$GPGSV,2,1,05,01,12,143,34,12,11,046,32,20,12,306,,22,30,119,37*76
$GPGSV,2,2,05,30,23,079,38*4B
$GPGLL,4003.98498,N,10512.71844,W,174359.00,A,A*7C
$GPRMC,174400.00,A,4003.98475,N,10512.71915,W,1.618,267.40,200510,,,A*79
$GPVTG,267.40,T,,M,1.618,N,2.998,K,A*3E
$GPGGA,174400.00,4003.98475,N,10512.71915,W,1,03,7.06,2304.1,M,-21.3,M,,*5F
$GPGSA,A,2,30,22,12,,,,,,,,,,7.13,7.06,1.00*06
$GPGSV,2,1,05,01,12,143,34,12,11,046,32,20,12,306,,22,30,119,36*77
$GPGSV,2,2,05,30,23,079,38*4B
$GPGLL,4003.98475,N,10512.71915,W,174400.00,A,A*71
$GPRMC,174401.00,A,4003.98480,N,10512.72070,W,1.687,266.19,200510,,,A*70
$GPVTG,266.19,T,,M,1.687,N,3.126,K,A*39
$GPGGA,174401.00,4003.98480,N,10512.72070,W,1,03,7.06,2304.1,M,-21.3,M,,*5D
$GPGSA,A,2,30,22,12,,,,,,,,,,7.13,7.06,1.00*06
$GPGSV,2,1,05,01,12,143,34,12,11,046,32,20,12,306,,22,30,119,36*77
$GPGSV,2,2,05,30,23,079,38*4B
$GPGLL,4003.98480,N,10512.72070,W,174401.00,A,A*73
$GPRMC,174402.00,A,4003.98481,N,10512.72225,W,1.706,265.44,200510,,,A*73
$GPVTG,265.44,T,,M,1.706,N,3.162,K,A*3A
$GPGGA,174402.00,4003.98481,N,10512.72225,W,1,03,7.06,2304.1,M,-21.3,M,,*5D
$GPGSA,A,2,30,22,12,,,,,,,,,,7.13,7.06,1.00*06
$GPGSV,2,1,05,01,12,143,34,12,11,046,31,20,12,306,,22,30,119,35*77
$GPGSV,2,2,05,30,23,079,37*44
$GPGLL,4003.98481,N,10512.72225,W,174402.00,A,A*73
$GPRMC,174403.00,A,4003.98499,N,10512.72332,W,1.430,266.63,200510,,,A*7C
$GPVTG,266.63,T,,M,1.430,N,2.651,K,A*3C
$GPGGA,174403.00,4003.98499,N,10512.72332,W,1,03,7.06,2304.0,M,-21.3,M,,*53
$GPGSA,A,2,30,22,12,,,,,,,,,,7.13,7.06,1.00*06
$GPGSV,2,1,05,01,12,143,34,12,11,046,31,20,12,306,,22,30,119,35*77
$GPGSV,2,2,05,30,23,079,37*44
$GPGLL,4003.98499,N,10512.72332,W,174403.00,A,A*7C
$GPRMC,174404.00,A,4003.98506,N,10512.72339,W,1.468,267.58,200510,,,A*73
$GPVTG,267.58,T,,M,1.468,N,2.720,K,A*3F
$GPGGA,174404.00,4003.98506,N,10512.72339,W,1,03,7.06,2304.1,M,-21.3,M,,*59
$GPGSA,A,2,30,22,12,,,,,,,,,,7.13,7.06,1.00*06
$GPGSV,2,1,05,01,12,143,34,12,11,046,31,20,12,306,,22,30,119,35*77
$GPGSV,2,2,05,30,23,079,37*44
$GPGLL,4003.98506,N,10512.72339,W,174404.00,A,A*77
$GPRMC,174405.00,A,4003.98508,N,10512.72463,W,1.477,267.80,200510,,,A*7F
$GPVTG,267.80,T,,M,1.477,N,2.736,K,A*33
$GPGGA,174405.00,4003.98508,N,10512.72463,W,1,03,7.06,2304.0,M,-21.3,M,,*5F
$GPGSA,A,2,30,22,12,,,,,,,,,,7.13,7.06,1.00*06
$GPGSV,2,1,05,01,12,143,34,12,11,046,31,20,12,306,,22,30,119,35*77
$GPGSV,2,2,05,30,23,079,37*44
$GPGLL,4003.98508,N,10512.72463,W,174405.00,A,A*70
$GPRMC,174406.00,A,4003.98502,N,10512.72458,W,0.405,269.46,200510,,,A*7E
$GPVTG,269.46,T,,M,0.405,N,0.751,K,A*30
$GPGGA,174406.00,4003.98502,N,10512.72458,W,1,03,7.06,2304.0,M,-21.3,M,,*5E
$GPGSA,A,2,30,22,12,,,,,,,,,,7.13,7.06,1.00*06
$GPGSV,2,1,05,01,12,143,34,12,11,046,31,20,12,306,,22,30,119,35*77
$GPGSV,2,2,05,30,23,079,37*44
$GPGLL,4003.98502,N,10512.72458,W,174406.00,A,A*71
$GPRMC,174407.00,A,4003.98493,N,10512.72577,W,1.608,269.56,200510,,,A*75
$GPVTG,269.56,T,,M,1.608,N,2.979,K,A*39
$GPGGA,174407.00,4003.98493,N,10512.72577,W,1,03,7.06,2304.0,M,-21.3,M,,*5A
$GPGSA,A,2,30,22,12,,,,,,,,,,7.13,7.06,1.00*06
$GPGSV,2,1,05,01,12,143,34,12,11,046,32,20,12,306,,22,30,119,35*74
$GPGSV,2,2,05,30,23,079,37*44
$GPGLL,4003.98493,N,10512.72577,W,174407.00,A,A*75
$GPRMC,174408.00,A,4003.98448,N,10512.72807,W,2.778,240.92,200510,,,A*70
$GPVTG,240.92,T,,M,2.778,N,5.147,K,A*3D
$GPGGA,174408.00,4003.98448,N,10512.72807,W,1,03,7.06,2304.0,M,-21.3,M,,*59
$GPGSA,A,2,30,22,12,,,,,,,,,,7.13,7.06,1.00*06
$GPGSV,2,1,05,01,12,143,34,12,11,046,32,20,12,306,,22,30,119,35*74
$GPGSV,2,2,05,30,23,079,37*44
$GPGLL,4003.98448,N,10512.72807,W,174408.00,A,A*76
$GPRMC,174409.00,A,4003.98433,N,10512.72869,W,1.917,242.17,200510,,,A*7E
$GPVTG,242.17,T,,M,1.917,N,3.552,K,A*30
$GPGGA,174409.00,4003.98433,N,10512.72869,W,1,03,7.06,2304.0,M,-21.3,M,,*5C
$GPGSA,A,2,30,22,12,,,,,,,,,,7.13,7.06,1.00*06
$GPGSV,2,1,05,01,12,143,33,12,11,046,32,20,12,306,,22,30,119,35*73
$GPGSV,2,2,05,30,23,079,38*4B
$GPGLL,4003.98433,N,10512.72869,W,174409.00,A,A*73
$GPRMC,174410.00,A,4003.98437,N,10512.72943,W,2.671,268.49,200510,,,A*74
$GPVTG,268.49,T,,M,2.671,N,4.950,K,A*36
$GPGGA,174410.00,4003.98437,N,10512.72943,W,1,03,7.06,2304.0,M,-21.3,M,,*59
$GPGSA,A,2,30,22,12,,,,,,,,,,7.13,7.06,1.00*06
$GPGSV,2,1,05,01,12,143,33,12,11,046,31,20,12,306,,22,30,119,38*7D
$GPGSV,2,2,05,30,23,079,37*44
$GPGLL,4003.98437,N,10512.72943,W,174410.00,A,A*76
$GPRMC,174411.00,A,4003.98411,N,10512.72860,W,1.357,266.47,200510,,,A*73
$GPVTG,266.47,T,,M,1.357,N,2.515,K,A*3F
$GPGGA,174411.00,4003.98411,N,10512.72860,W,1,03,7.06,2304.0,M,-21.3,M,,*5C
$GPGSA,A,2,30,22,12,,,,,,,,,,7.13,7.06,1.00*06
$GPGSV,2,1,05,01,12,143,33,12,11,046,32,20,12,306,,22,30,119,36*70
$GPGSV,2,2,05,30,23,079,37*44
$GPGLL,4003.98411,N,10512.72860,W,174411.00,A,A*73
$GPRMC,174412.00,A,4003.98405,N,10512.72799,W,0.537,264.44,200510,,,A*7C
$GPVTG,264.44,T,,M,0.537,N,0.995,K,A*39
$GPGGA,174412.00,4003.98405,N,10512.72799,W,1,03,7.06,2304.0,M,-21.3,M,,*53
$GPGSA,A,2,30,22,12,,,,,,,,,,7.13,7.06,1.00*06
$GPGSV,2,1,05,01,12,143,33,12,11,046,32,20,12,306,,22,30,119,36*70
$GPGSV,2,2,05,30,23,079,37*44
$GPGLL,4003.98405,N,10512.72799,W,174412.00,A,A*7C
$GPRMC,174413.00,A,4003.98404,N,10512.72771,W,0.592,263.82,200510,,,A*78
$GPVTG,263.82,T,,M,0.592,N,1.097,K,A*31
$GPGGA,174413.00,4003.98404,N,10512.72771,W,1,03,7.06,2304.0,M,-21.3,M,,*55
$GPGSA,A,2,30,22,12,,,,,,,,,,7.13,7.06,1.00*06
$GPGSV,2,1,05,01,12,143,33,12,11,046,32,20,12,306,,22,30,119,36*70
$GPGSV,2,2,05,30,23,079,36*45
$GPGLL,4003.98404,N,10512.72771,W,174413.00,A,A*7A
$GPRMC,174414.00,V,,,,,,,200510,,,N*78
$GPVTG,,,,,,,,,N*30
$GPGGA,174414.00,,,,,0,00,99.99,,,,,,*65
$GPGSA,A,1,,,,,,,,,,,,,99.99,99.99,99.99*30
$GPGSV,2,1,05,01,12,143,33,12,11,046,32,20,12,306,,22,30,119,36*70
$GPGSV,2,2,05,30,23,079,36*45
$GPGLL,,,,,174414.00,V,N*49
$GPRMC,174415.00,V,,,,,,,200510,,,N*79
$GPVTG,,,,,,,,,N*30
$GPGGA,174415.00,,,,,0,00,99.99,,,,,,*64
$GPGSA,A,1,,,,,,,,,,,,,99.99,99.99,99.99*30
$GPGSV,2,1,05,01,12,143,32,12,11,046,32,20,12,306,,22,30,119,37*70
$GPGSV,2,2,05,30,23,079,*40
$GPGLL,,,,,174415.00,V,N*48
$GPRMC,174416.00,A,4003.98430,N,10512.72561,W,0.739,272.42,200510,,,A*76
$GPVTG,272.42,T,,M,0.739,N,1.370,K,A*34
$GPGGA,174416.00,4003.98430,N,10512.72561,W,1,03,7.06,2304.0,M,-21.3,M,,*54
$GPGSA,A,2,30,22,12,,,,,,,,,,7.13,7.06,1.00*06
$GPGSV,2,1,05,01,12,143,33,12,11,046,32,20,12,306,,22,30,119,37*71
$GPGSV,2,2,05,30,23,079,36*45
$GPGLL,4003.98430,N,10512.72561,W,174416.00,A,A*7B
$GPRMC,174417.00,V,,,,,,,200510,,,N*7B
$GPVTG,,,,,,,,,N*30
$GPGGA,174417.00,,,,,0,00,99.99,,,,,,*66
$GPGSA,A,1,,,,,,,,,,,,,99.99,99.99,99.99*30
$GPGSV,2,1,05,01,12,143,34,12,11,046,32,20,12,306,,22,30,119,36*77
$GPGSV,2,2,05,30,23,079,33*40
$GPGLL,,,,,174417.00,V,N*4A
$GPRMC,174418.00,V,,,,,,,200510,,,N*74
$GPVTG,,,,,,,,,N*30
$GPGGA,174418.00,,,,,0,00,99.99,,,,,,*69
$GPGSA,A,1,,,,,,,,,,,,,99.99,99.99,99.99*30
$GPGSV,2,1,05,01,12,143,33,12,11,046,34,20,12,306,,22,30,119,37*77
$GPGSV,2,2,05,30,23,079,*40
$GPGLL,,,,,174418.00,V,N*45
$GPRMC,174419.00,A,4003.98477,N,10512.72082,W,1.561,299.58,200510,,,A*72
$GPVTG,299.58,T,,M,1.561,N,2.893,K,A*31
$GPGGA,174419.00,4003.98477,N,10512.72082,W,1,03,7.06,2304.0,M,-21.3,M,,*50
$GPGSA,A,2,30,22,12,,,,,,,,,,7.13,7.06,1.00*06
$GPGSV,2,1,05,01,12,143,32,12,11,046,34,20,12,306,,22,30,119,37*76
$GPGSV,2,2,05,30,23,079,33*40
$GPGLL,4003.98477,N,10512.72082,W,174419.00,A,A*7F
$GPRMC,174420.00,A,4003.98496,N,10512.71765,W,1.622,309.39,200510,,,A*71
$GPVTG,309.39,T,,M,1.622,N,3.006,K,A*3F
$GPGGA,174420.00,4003.98496,N,10512.71765,W,1,03,7.06,2304.0,M,-21.3,M,,*58
$GPGSA,A,2,30,22,12,,,,,,,,,,7.13,7.06,1.00*06
$GPGSV,2,1,05,01,12,143,33,12,11,046,34,20,12,306,,22,30,119,37*77
$GPGSV,2,2,05,30,23,079,33*40
$GPGLL,4003.98496,N,10512.71765,W,174420.00,A,A*77
$GPRMC,174421.00,A,4003.98506,N,10512.71862,W,1.569,318.43,200510,,,A*71
$GPVTG,318.43,T,,M,1.569,N,2.908,K,A*38
$GPGGA,174421.00,4003.98506,N,10512.71862,W,1,03,7.06,2304.0,M,-21.3,M,,*59
$GPGSA,A,2,30,22,12,,,,,,,,,,7.13,7.06,1.00*06
$GPGSV,2,1,06,01,12,143,33,12,11,046,34,14,,,37,20,12,306,*4B
$GPGSV,2,2,06,22,30,119,36,30,23,079,33*7C
$GPGLL,4003.98506,N,10512.71862,W,174421.00,A,A*76
$GPRMC,174422.00,A,4003.98524,N,10512.71651,W,2.066,86.86,200510,,,A*48
$GPVTG,86.86,T,,M,2.066,N,3.829,K,A*0F
$GPGGA,174422.00,4003.98524,N,10512.71651,W,1,03,7.06,2304.0,M,-21.3,M,,*54
$GPGSA,A,2,30,22,12,,,,,,,,,,7.13,7.06,1.00*06
$GPGSV,2,1,06,01,12,143,33,12,11,046,34,14,,,37,20,12,307,*4A
$GPGSV,2,2,06,22,30,119,36,30,23,079,33*7C
$GPGLL,4003.98524,N,10512.71651,W,174422.00,A,A*7B
$GPRMC,174423.00,A,4003.98529,N,10512.71758,W,0.780,84.97,200510,,,A*43
$GPVTG,84.97,T,,M,0.780,N,1.445,K,A*04
$GPGGA,174423.00,4003.98529,N,10512.71758,W,1,03,7.06,2304.0,M,-21.3,M,,*50
$GPGSA,A,2,30,22,12,,,,,,,,,,7.13,7.06,1.00*06
$GPGSV,2,1,06,01,12,143,33,12,11,046,34,14,,,37,20,12,307,*4A
$GPGSV,2,2,06,22,30,119,36,30,23,079,33*7C
$GPGLL,4003.98529,N,10512.71758,W,174423.00,A,A*7F
$GPRMC,174424.00,A,4003.98530,N,10512.71712,W,1.126,85.46,200510,,,A*44
$GPVTG,85.46,T,,M,1.126,N,2.086,K,A*0A
$GPGGA,174424.00,4003.98530,N,10512.71712,W,1,03,7.06,2304.0,M,-21.3,M,,*51
$GPGSA,A,2,30,22,12,,,,,,,,,,7.13,7.06,1.00*06
$GPGSV,2,1,06,01,12,143,33,12,11,046,33,14,,,37,20,12,307,*4D
$GPGSV,2,2,06,22,30,119,35,30,23,079,34*78
$GPGLL,4003.98530,N,10512.71712,W,174424.00,A,A*7E
$GPRMC,174425.00,V,,,,,,,200510,,,N*7A
$GPVTG,,,,,,,,,N*30
$GPGGA,174425.00,,,,,0,00,99.99,,,,,,*67
$GPGSA,A,1,,,,,,,,,,,,,99.99,99.99,99.99*30
$GPGSV,2,1,06,01,12,143,28,12,11,046,28,14,,,33,20,12,307,*49
$GPGSV,2,2,06,22,30,119,29,30,23,079,33*72
$GPGLL,,,,,174425.00,V,N*4B
$GPRMC,174426.00,V,,,,,,,200510,,,N*79
$GPVTG,,,,,,,,,N*30
$GPGGA,174426.00,,,,,0,00,99.99,,,,,,*64
$GPGSA,A,1,,,,,,,,,,,,,99.99,99.99,99.99*30
$GPGSV,2,1,07,01,12,143,28,12,11,046,28,14,,,33,17,,,24*7D
$GPGSV,2,2,07,20,12,307,,22,30,119,31,30,23,079,*4F
$GPGLL,,,,,174426.00,V,N*48
$GPRMC,174427.00,A,4003.98505,N,10512.72158,W,0.861,96.67,200510,,,A*40
$GPVTG,96.67,T,,M,0.861,N,1.595,K,A*04
$GPGGA,174427.00,4003.98505,N,10512.72158,W,1,03,7.06,2304.1,M,-21.3,M,,*5E
$GPGSA,A,2,30,22,12,,,,,,,,,,7.13,7.06,1.00*06
$GPGSV,2,1,07,01,12,143,30,12,11,046,41,14,,,43,17,,,23*7B
$GPGSV,2,2,07,20,12,307,22,22,30,119,41,30,23,079,43*4F
$GPGLL,4003.98505,N,10512.72158,W,174427.00,A,A*70
$GPRMC,174428.00,A,4003.98517,N,10512.72443,W,1.612,106.93,200510,,,A*7B
$GPVTG,106.93,T,,M,1.612,N,2.988,K,A*3F
$GPGGA,174428.00,4003.98517,N,10512.72443,W,1,03,7.06,2304.1,M,-21.3,M,,*5D
$GPGSA,A,2,30,22,12,,,,,,,,,,7.13,7.06,1.00*06
$GPGSV,2,1,07,01,12,143,29,12,11,046,37,14,,,38,17,,,20*7D
$GPGSV,2,2,07,20,12,307,,22,30,119,38,30,23,079,38*4D
$GPGLL,4003.98517,N,10512.72443,W,174428.00,A,A*73
$GPRMC,174429.00,A,4003.98499,N,10512.72581,W,2.015,257.48,200510,,,A*71
$GPVTG,257.48,T,,M,2.015,N,3.734,K,A*34
$GPGGA,174429.00,4003.98499,N,10512.72581,W,1,03,7.05,2304.1,M,-21.3,M,,*57
$GPGSA,A,2,30,22,12,,,,,,,,,,7.13,7.05,1.00*05
$GPGSV,2,1,07,01,12,143,30,12,11,046,38,14,,,39,17,,,20*7B
$GPGSV,2,2,07,20,12,307,,22,30,119,38,30,23,079,39*4C
$GPGLL,4003.98499,N,10512.72581,W,174429.00,A,A*7A
$GPRMC,174430.00,A,4003.98511,N,10512.72742,W,1.522,257.65,200510,,,A*78
$GPVTG,257.65,T,,M,1.522,N,2.820,K,A*32
$GPGGA,174430.00,4003.98511,N,10512.72742,W,1,03,7.05,2304.1,M,-21.3,M,,*53
$GPGSA,A,2,30,22,12,,,,,,,,,,7.13,7.05,1.00*05
$GPGSV,2,1,07,01,12,143,29,12,11,046,38,14,,,39,17,,,19*79
$GPGSV,2,2,07,20,12,307,,22,30,119,38,30,23,079,39*4C
$GPGLL,4003.98511,N,10512.72742,W,174430.00,A,A*7E
$GPRMC,174431.00,A,4003.98495,N,10512.73117,W,1.767,257.62,200510,,,A*77
$GPVTG,257.62,T,,M,1.767,N,3.274,K,A*3C
$GPGGA,174431.00,4003.98495,N,10512.73117,W,1,03,7.05,2304.0,M,-21.3,M,,*59
$GPGSA,A,2,30,22,12,,,,,,,,,,7.12,7.05,1.00*04
$GPGSV,2,1,07,01,12,143,29,12,11,046,38,14,,,39,17,,,20*73
$GPGSV,2,2,07,20,12,307,,22,30,119,38,30,23,079,39*4C
$GPGLL,4003.98495,N,10512.73117,W,174431.00,A,A*75
$GPRMC,174432.00,A,4003.98501,N,10512.73038,W,0.339,254.06,200510,,,A*7B
$GPVTG,254.06,T,,M,0.339,N,0.628,K,A*3D
$GPGGA,174432.00,4003.98501,N,10512.73038,W,1,03,7.05,2304.0,M,-21.3,M,,*5A
$GPGSA,A,2,30,22,12,,,,,,,,,,7.12,7.05,1.00*04
$GPGSV,2,1,07,01,12,143,32,12,11,046,40,14,,,41,17,,,21*78
$GPGSV,2,2,07,20,12,307,,22,30,119,41,30,23,078,40*4D
$GPGLL,4003.98501,N,10512.73038,W,174432.00,A,A*76
$GPRMC,174433.00,A,4003.98517,N,10512.73168,W,0.384,255.05,200510,,,A*7D
$GPVTG,255.05,T,,M,0.384,N,0.711,K,A*32
$GPGGA,174433.00,4003.98517,N,10512.73168,W,1,03,7.05,2304.0,M,-21.3,M,,*58
$GPGSA,A,2,30,22,12,,,,,,,,,,7.12,7.05,1.00*04
$GPGSV,2,1,07,01,12,143,31,12,11,046,38,14,,,40,17,,,20*74
$GPGSV,2,2,07,20,12,307,,22,30,119,38,30,23,078,39*4D
$GPGLL,4003.98517,N,10512.73168,W,174433.00,A,A*74
$GPRMC,174434.00,A,4003.98529,N,10512.73298,W,0.558,254.80,200510,,,A*70
$GPVTG,254.80,T,,M,0.558,N,1.033,K,A*3F
$GPGGA,174434.00,4003.98529,N,10512.73298,W,1,03,7.05,2304.0,M,-21.3,M,,*5E
$GPGSA,A,2,30,22,12,,,,,,,,,,7.12,7.05,1.00*04
$GPGSV,2,1,07,01,12,143,31,12,11,046,38,14,,,40,17,,,20*74
$GPGSV,2,2,07,20,12,307,,22,30,119,38,30,23,078,39*4D
$GPGLL,4003.98529,N,10512.73298,W,174434.00,A,A*72
$GPRMC,174435.00,A,4003.98541,N,10512.73379,W,1.477,254.98,200510,,,A*75
$GPVTG,254.98,T,,M,1.477,N,2.736,K,A*3A
$GPGGA,174435.00,4003.98541,N,10512.73379,W,1,03,7.05,2304.1,M,-21.3,M,,*5E
$GPGSA,A,2,30,22,12,,,,,,,,,,7.12,7.05,1.00*04
$GPGSV,2,1,07,01,12,143,31,12,11,046,38,14,,,39,17,,,20*7A
$GPGSV,2,2,07,20,12,307,,22,30,119,38,30,23,078,38*4C
$GPGLL,4003.98541,N,10512.73379,W,174435.00,A,A*73
$GPRMC,174436.00,A,4003.98550,N,10512.73408,W,0.380,253.42,200510,,,A*79
$GPVTG,253.42,T,,M,0.380,N,0.704,K,A*37
$GPGGA,174436.00,4003.98550,N,10512.73408,W,1,03,7.05,2304.0,M,-21.3,M,,*5D
$GPGSA,A,2,30,22,12,,,,,,,,,,7.12,7.05,1.00*04
$GPGSV,2,1,07,01,12,143,32,12,11,046,38,14,,,39,17,,,20*79
$GPGSV,2,2,07,20,12,307,,22,30,119,38,30,23,078,38*4C
$GPGLL,4003.98550,N,10512.73408,W,174436.00,A,A*71
$GPRMC,174437.00,A,4003.98544,N,10512.73428,W,0.498,251.01,200510,,,A*74
$GPVTG,251.01,T,,M,0.498,N,0.923,K,A*37
$GPGGA,174437.00,4003.98544,N,10512.73428,W,1,03,7.05,2304.0,M,-21.3,M,,*5B
$GPGSA,A,2,30,22,12,,,,,,,,,,7.12,7.05,1.00*04
$GPGSV,2,1,07,01,12,143,27,12,11,046,33,14,,,35,17,,,20*7A
$GPGSV,2,2,07,20,12,307,,22,30,119,34,30,23,078,32*4A
$GPGLL,4003.98544,N,10512.73428,W,174437.00,A,A*77
$GPRMC,174438.00,A,4003.98566,N,10512.73470,W,1.374,254.37,200510,,,A*72
$GPVTG,254.37,T,,M,1.374,N,2.546,K,A*3E
$GPGGA,174438.00,4003.98566,N,10512.73470,W,1,03,7.05,2304.0,M,-21.3,M,,*59
$GPGSA,A,2,30,22,12,,,,,,,,,,7.12,7.05,1.00*04
$GPGSV,2,1,08,01,12,143,29,12,11,046,33,14,,,33,17,,,22*7F
$GPGSV,2,2,08,20,12,307,,22,30,119,33,29,,,29,30,23,078,33*43
$GPGLL,4003.98566,N,10512.73470,W,174438.00,A,A*75
$GPRMC,174439.00,A,4003.98570,N,10512.73511,W,0.612,253.04,200510,,,A*71
$GPVTG,253.04,T,,M,0.612,N,1.133,K,A*38
$GPGGA,174439.00,4003.98570,N,10512.73511,W,1,03,7.05,2304.0,M,-21.3,M,,*59
$GPGSA,A,2,30,22,12,,,,,,,,,,7.12,7.05,1.00*04
$GPGSV,2,1,08,01,12,143,31,12,11,046,34,14,,,37,17,,,26*71
$GPGSV,2,2,08,20,12,307,,22,30,119,38,29,,,27,30,23,078,36*43
$GPGLL,4003.98570,N,10512.73511,W,174439.00,A,A*75
$GPRMC,174440.00,A,4003.98577,N,10512.73562,W,0.410,254.82,200510,,,A*75
$GPVTG,254.82,T,,M,0.410,N,0.760,K,A*30
$GPGGA,174440.00,4003.98577,N,10512.73562,W,1,03,7.05,2304.0,M,-21.3,M,,*54
$GPGSA,A,2,30,22,12,,,,,,,,,,7.12,7.05,1.00*04
$GPGSV,2,1,08,01,12,143,32,12,11,046,34,14,,,36,17,,,23*76
$GPGSV,2,2,08,20,12,307,,22,30,119,37,29,,,25,30,23,078,35*4D
$GPGLL,4003.98577,N,10512.73562,W,174440.00,A,A*78
$GPRMC,174441.00,A,4003.98593,N,10512.73602,W,0.928,256.47,200510,,,A*76
$GPVTG,256.47,T,,M,0.928,N,1.719,K,A*32
$GPGGA,174441.00,4003.98593,N,10512.73602,W,1,03,7.05,2304.0,M,-21.3,M,,*5A
$GPGSA,A,2,30,22,12,,,,,,,,,,7.12,7.05,1.00*04
$GPGSV,2,1,07,01,12,143,31,12,11,046,34,14,,,35,20,12,307,*4B
$GPGSV,2,2,07,22,30,119,39,29,,,24,30,23,078,37*7A
$GPGLL,4003.98593,N,10512.73602,W,174441.00,A,A*76
$GPRMC,174442.00,A,4003.98581,N,10512.73688,W,0.855,254.95,200510,,,A*72
$GPVTG,254.95,T,,M,0.855,N,1.584,K,A*32
$GPGGA,174442.00,4003.98581,N,10512.73688,W,1,03,7.05,2304.0,M,-21.3,M,,*58
$GPGSA,A,2,30,22,12,,,,,,,,,,7.12,7.05,1.00*04
$GPGSV,2,1,07,01,12,143,32,12,11,046,34,14,,,36,20,12,307,*4B
$GPGSV,2,2,07,22,30,119,37,29,,,23,30,23,078,37*73
$GPGLL,4003.98581,N,10512.73688,W,174442.00,A,A*74
$GPRMC,174443.00,A,4003.98595,N,10512.73686,W,0.740,253.20,200510,,,A*7A
$GPVTG,253.20,T,,M,0.740,N,1.371,K,A*3C
$GPGGA,174443.00,4003.98595,N,10512.73686,W,1,03,7.05,2304.0,M,-21.3,M,,*52
$GPGSA,A,2,30,22,12,,,,,,,,,,7.12,7.05,1.00*04
$GPGSV,2,1,07,01,12,143,31,12,11,046,33,14,,,35,20,12,307,*4C
$GPGSV,2,2,07,22,30,119,39,29,,,24,30,23,078,36*7B
$GPGLL,4003.98595,N,10512.73686,W,174443.00,A,A*7E
$GPRMC,174444.00,A,4003.98604,N,10512.73667,W,1.167,254.99,200510,,,A*7E
$GPVTG,254.99,T,,M,1.167,N,2.163,K,A*39
$GPGGA,174444.00,4003.98604,N,10512.73667,W,1,03,7.05,2304.0,M,-21.3,M,,*51
$GPGSA,A,2,30,22,12,,,,,,,,,,7.12,7.05,1.00*04
$GPGSV,2,1,07,01,12,143,31,12,11,046,33,14,,,35,20,12,307,*4C
$GPGSV,2,2,07,22,30,119,39,29,,,24,30,23,078,36*7B
$GPGLL,4003.98604,N,10512.73667,W,174444.00,A,A*7D
$GPRMC,174445.00,A,4003.98595,N,10512.73559,W,0.150,,200510,,,A*62
$GPVTG,,T,,M,0.150,N,0.278,K,A*2A
$GPGGA,174445.00,4003.98595,N,10512.73559,W,1,03,7.05,2303.9,M,-21.3,M,,*5B
$GPGSA,A,2,30,22,12,,,,,,,,,,7.12,7.05,1.00*04
$GPGSV,2,1,08,01,12,143,30,11,,,28,12,11,046,34,14,,,35*7A
$GPGSV,2,2,08,20,12,307,,22,30,119,39,29,,,25,30,23,078,36*40
$GPGLL,4003.98595,N,10512.73559,W,174445.00,A,A*79
$GPRMC,174446.00,A,4003.98571,N,10512.73542,W,0.386,245.65,200510,,,A*76
$GPVTG,245.65,T,,M,0.386,N,0.715,K,A*33
$GPGGA,174446.00,4003.98571,N,10512.73542,W,1,03,7.05,2303.9,M,-21.3,M,,*58
$GPGSA,A,2,30,22,12,,,,,,,,,,7.12,7.05,1.00*04
$GPGSV,2,1,08,01,12,143,31,11,,,29,12,11,046,34,14,,,34*7B
$GPGSV,2,2,08,20,12,307,,22,30,119,38,29,,,24,30,23,078,36*40
$GPGLL,4003.98571,N,10512.73542,W,174446.00,A,A*7A
$GPRMC,174447.00,A,4003.98526,N,10512.73424,W,0.679,239.52,200510,,,A*7E
$GPVTG,239.52,T,,M,0.679,N,1.259,K,A*35
$GPGGA,174447.00,4003.98526,N,10512.73424,W,1,03,7.05,2303.9,M,-21.3,M,,*5A
$GPGSA,A,2,30,22,12,,,,,,,,,,7.12,7.05,1.00*04
$GPGSV,2,1,08,01,12,143,31,11,,,29,12,11,046,34,14,,,34*7B
$GPGSV,2,2,08,20,12,307,,22,30,119,38,29,,,24,30,23,078,36*40
$GPGLL,4003.98526,N,10512.73424,W,174447.00,A,A*78
$GPRMC,174448.00,A,4003.98490,N,10512.73400,W,0.833,231.75,200510,,,A*76
$GPVTG,231.75,T,,M,0.833,N,1.544,K,A*33
$GPGGA,174448.00,4003.98490,N,10512.73400,W,1,03,7.05,2303.9,M,-21.3,M,,*5F
$GPGSA,A,2,30,22,12,,,,,,,,,,7.12,7.05,1.00*04
$GPGSV,2,1,07,01,12,143,31,11,,,29,12,11,046,33,14,,,34*73
$GPGSV,2,2,07,20,12,307,,22,30,119,38,30,23,078,37*43
$GPGLL,4003.98490,N,10512.73400,W,174448.00,A,A*7D
$GPRMC,174449.00,A,4003.98456,N,10512.73377,W,1.066,224.30,200510,,,A*76
$GPVTG,224.30,T,,M,1.066,N,1.975,K,A*31
$GPGGA,174449.00,4003.98456,N,10512.73377,W,1,03,7.05,2303.9,M,-21.3,M,,*53
$GPGSA,A,2,30,22,12,,,,,,,,,,7.12,7.05,1.00*04
$GPGSV,2,1,07,01,12,143,31,11,,,28,12,11,046,32,14,,,32*75
$GPGSV,2,2,07,20,12,307,,22,30,119,36,30,23,078,36*4C
$GPGLL,4003.98456,N,10512.73377,W,174449.00,A,A*71
$GPRMC,174450.00,A,4003.98460,N,10512.73565,W,1.217,227.06,200510,,,A*7C
$GPVTG,227.06,T,,M,1.217,N,2.256,K,A*3A
$GPGGA,174450.00,4003.98460,N,10512.73565,W,1,03,7.05,2303.9,M,-21.3,M,,*5B
$GPGSA,A,2,30,22,12,,,,,,,,,,7.12,7.05,1.00*04
$GPGSV,2,1,07,01,12,143,37,11,,,26,12,11,046,32,14,,,28*76
$GPGSV,2,2,07,20,12,307,,22,30,119,43,30,23,078,38*40
$GPGLL,4003.98460,N,10512.73565,W,174450.00,A,A*79
$GPRMC,174451.00,V,,,,,,,200510,,,N*79
$GPVTG,,,,,,,,,N*30
$GPGGA,174451.00,,,,,0,00,99.99,,,,,,*64
$GPGSA,A,1,,,,,,,,,,,,,99.99,99.99,99.99*30
$GPGSV,2,1,06,01,12,143,21,11,,,26,12,11,046,27,20,12,307,*4E
$GPGSV,2,2,06,22,30,119,26,30,23,078,25*7B
$GPGLL,,,,,174451.00,V,N*48
$GPRMC,174452.00,V,,,,,,,200510,,,N*7A
$GPVTG,,,,,,,,,N*30
$GPGGA,174452.00,,,,,0,00,99.99,,,,,,*67
$GPGSA,A,1,,,,,,,,,,,,,99.99,99.99,99.99*30
$GPGSV,2,1,06,01,12,143,26,11,,,25,12,11,046,25,20,12,307,*48
$GPGSV,2,2,06,22,30,119,26,30,23,078,26*78
$GPGLL,,,,,174452.00,V,N*4B
$GPRMC,174453.00,V,,,,,,,200510,,,N*7B
$GPVTG,,,,,,,,,N*30
$GPGGA,174453.00,,,,,0,00,99.99,,,,,,*66
$GPGSA,A,1,,,,,,,,,,,,,99.99,99.99,99.99*30
$GPGSV,2,1,06,01,12,143,25,11,,,25,12,11,046,23,20,12,307,*4D
$GPGSV,2,2,06,22,30,119,26,30,23,078,25*7B
$GPGLL,,,,,174453.00,V,N*4A
$GPRMC,174454.00,V,,,,,,,200510,,,N*7C
$GPVTG,,,,,,,,,N*30
$GPGGA,174454.00,,,,,0,00,99.99,,,,,,*61
$GPGSA,A,1,,,,,,,,,,,,,99.99,99.99,99.99*30
$GPGSV,2,1,05,01,12,143,,12,11,046,22,20,12,307,,22,30,119,25*72
$GPGSV,2,2,05,30,23,078,24*47
$GPGLL,,,,,174454.00,V,N*4D
$GPRMC,174455.00,V,,,,,,,200510,,,N*7D
$GPVTG,,,,,,,,,N*30
$GPGGA,174455.00,,,,,0,00,99.99,,,,,,*60
$GPGSA,A,1,,,,,,,,,,,,,99.99,99.99,99.99*30
$GPGSV,2,1,05,01,12,143,27,12,11,046,23,20,12,307,,22,30,119,30*72
$GPGSV,2,2,05,30,23,078,24*47
$GPGLL,,,,,174455.00,V,N*4C
$GPRMC,174456.00,V,,,,,,,200510,,,N*7E
$GPVTG,,,,,,,,,N*30
$GPGGA,174456.00,,,,,0,00,99.99,,,,,,*63
$GPGSA,A,1,,,,,,,,,,,,,99.99,99.99,99.99*30
$GPGSV,2,1,05,01,12,143,22,12,11,046,21,20,12,307,,22,30,119,*76
$GPGSV,2,2,05,30,23,078,23*40
$GPGLL,,,,,174456.00,V,N*4F
$GPRMC,174457.00,V,,,,,,,200510,,,N*7F
$GPVTG,,,,,,,,,N*30
$GPGGA,174457.00,,,,,0,00,99.99,,,,,,*62
$GPGSA,A,1,,,,,,,,,,,,,99.99,99.99,99.99*30
$GPGSV,2,1,05,01,12,143,,12,11,046,21,20,12,307,,22,30,119,25*71
$GPGSV,2,2,05,30,23,078,22*41
$GPGLL,,,,,174457.00,V,N*4E
$GPRMC,174458.00,A,4003.98468,N,10512.74456,W,1.313,245.24,200510,,,A*7B
$GPVTG,245.24,T,,M,1.313,N,2.433,K,A*3E
$GPGGA,174458.00,4003.98468,N,10512.74456,W,1,03,7.05,2303.9,M,-21.3,M,,*5D
$GPGSA,A,2,30,22,12,,,,,,,,,,7.12,7.05,1.00*04
$GPGSV,2,1,05,01,12,143,,12,11,046,21,20,12,307,,22,30,119,26*72
$GPGSV,2,2,05,30,23,078,24*47
$GPGLL,4003.98468,N,10512.74456,W,174458.00,A,A*7F
$GPRMC,174459.00,V,,,,,,,200510,,,N*71
$GPVTG,,,,,,,,,N*30
$GPGGA,174459.00,,,,,0,00,99.99,,,,,,*6C
$GPGSA,A,1,,,,,,,,,,,,,99.99,99.99,99.99*30
$GPGSV,2,1,05,01,12,143,,12,11,046,21,20,12,307,,22,30,119,25*71
$GPGSV,2,2,05,30,23,078,25*46
$GPGLL,,,,,174459.00,V,N*40
$GPRMC,174500.00,V,,,,,,,200510,,,N*7C
$GPVTG,,,,,,,,,N*30
$GPGGA,174500.00,,,,,0,00,99.99,,,,,,*61
$GPGSA,A,1,,,,,,,,,,,,,99.99,99.99,99.99*30
$GPGSV,2,1,05,01,12,143,,12,11,046,,20,12,307,,22,30,119,25*72
$GPGSV,2,2,05,30,23,078,24*47
$GPGLL,,,,,174500.00,V,N*4D
$GPRMC,174501.00,V,,,,,,,200510,,,N*7D
$GPVTG,,,,,,,,,N*30
$GPGGA,174501.00,,,,,0,00,99.99,,,,,,*60
$GPGSA,A,1,,,,,,,,,,,,,99.99,99.99,99.99*30
$GPGSV,2,1,05,01,12,143,,12,11,046,16,20,12,307,,22,30,119,26*76
$GPGSV,2,2,05,30,23,078,24*47
$GPGLL,,,,,174501.00,V,N*4C
$GPRMC,174502.00,V,,,,,,,200510,,,N*7E
$GPVTG,,,,,,,,,N*30
$GPGGA,174502.00,,,,,0,00,99.99,,,,,,*63
$GPGSA,A,1,,,,,,,,,,,,,99.99,99.99,99.99*30
$GPGSV,2,1,05,01,12,143,,12,11,046,17,20,12,307,,22,30,119,25*74
$GPGSV,2,2,05,30,23,078,29*4A
$GPGLL,,,,,174502.00,V,N*4F
$GPRMC,174503.00,V,,,,,,,200510,,,N*7F
$GPVTG,,,,,,,,,N*30
$GPGGA,174503.00,,,,,0,00,99.99,,,,,,*62
$GPGSA,A,1,,,,,,,,,,,,,99.99,99.99,99.99*30
$GPGSV,2,1,05,01,12,143,,12,11,046,18,20,12,307,,22,30,119,26*78
$GPGSV,2,2,05,30,23,078,23*40
$GPGLL,,,,,174503.00,V,N*4E
$GPRMC,174504.00,V,,,,,,,200510,,,N*78
$GPVTG,,,,,,,,,N*30
$GPGGA,174504.00,,,,,0,00,99.99,,,,,,*65
$GPGSA,A,1,,,,,,,,,,,,,99.99,99.99,99.99*30
